"business_id","business_name","business_address","business_postal_code","business_latitude","business_longitude","business_location","business_phone_number","inspection_id","inspection_date","inspection_score","violation_id","violation_description","risk_category"
4864,"DRAGON CITY BAKERY & CAFE","2367 MISSION St",94110,37.759174,-122.419066,"(37.759174, -122.419066)",14155829718,"4864_20161206","12/6/16",84,"4864_20161206_103157","Food safety certificate or food handler card not available","Low Risk"
3838,"CAFE PICARO","3120 16th St",94103,37.764908,-122.422442,"(37.764908, -122.422442)",14155434089,"3838_20180222","2/22/18",72,"3838_20180222_103142","Unclean nonfood contact surfaces","Low Risk"
64380,"Michael Mina Restaurant","252 California St",94111,37.793338,-122.399583,"(37.793338, -122.399583)",14155350791,"64380_20160414","4/14/16",86,"64380_20160414_103154","Unclean or degraded floors walls or ceilings","Low Risk"
1596,"BURGERMEISTER","86 Carl St",94117,37.765848,-122.449664,"(37.765848, -122.449664)",14155564433,"1596_20171201","12/1/17",96,"1596_20171201_103144","Unapproved or unmaintained equipment or utensils","Low Risk"
69769,"Whole Foods Market","1150 Ocean Ave",94112,37.723652,-122.45461,"(37.723652, -122.45461)",14155337400,"69769_20180725","7/25/18",90,"69769_20180725_103144","Unapproved or unmaintained equipment or utensils","Low Risk"
32586,"Terroir","81 Langton St",94103,37.776494,-122.408562,"(37.776494, -122.408562)",14155718949,"32586_20160906","9/6/16",96,"32586_20160906_103144","Unapproved or unmaintained equipment or utensils","Low Risk"
60544,"Manzoni","2790 Diamond St",94131,37.73473,-122.433823,"(37.73473, -122.433823)",14155332251,"60544_20160929","9/29/16",92,"60544_20160929_103157","Food safety certificate or food handler card not available","Low Risk"
62578,"New Chef Hung's Restaurant","823 Clay St",94108,37.794193,-122.406677,"(37.794193, -122.406677)",14155396883,"62578_20171207","12/7/17",66,"62578_20171207_103145","Improper storage of equipment utensils or linens","Low Risk"
7689,"UNOCAL 76  PACIFIC ENTERPRISES","999 OCEAN Ave",94112,37.723133,-122.452707,"(37.723133, -122.452707)",14155588296,"7689_20160811","8/11/16",98,"7689_20160811_103148","No thermometers or uncalibrated thermometers","Low Risk"
5219,"SALVATION ARMY GATEWAY","407 09th St",94103,37.772473,-122.409879,"(37.772473, -122.409879)",14155256100,"5219_20180511","5/11/18",94,"5219_20180511_103139","Improper food storage","Low Risk"
59002,"Yummy Bakery & Restaurant","607 Jackson St",94133,37.796152,-122.405255,"(37.796152, -122.405255)",14155988388,"59002_20180515","5/15/18",92,"59002_20180515_103138","Improper storage use or identification of toxic substances","Low Risk"
62064,"California Grocery","123 Eddy St",94102,37.784303,-122.409647,"(37.784303, -122.409647)",14155448608,"62064_20160411","4/11/16",75,"62064_20160411_103150","Improper or defective plumbing","Low Risk"
69282,"New Jumbo Seafood Restaurant","1532 NORIEGA St",94122,37.754132,-122.480058,"(37.754132, -122.480058)",14155681800,"69282_20160413","4/13/16",76,"69282_20160413_103142","Unclean nonfood contact surfaces","Low Risk"
68773,"Nopalito","1224 9th Ave",94122,37.765412,-122.466375,"(37.765412, -122.466375)",14155430303,"68773_20180214","2/14/18",90,"68773_20180214_103139","Improper food storage","Low Risk"
4685,"NORMAN'S LIQUOR & DELI","733 Randolph St",94132,37.714204,-122.469193,"(37.714204, -122.469193)",14155580088,"4685_20161203","12/3/16",96,"4685_20161203_103156","Permit license or inspection report not posted","Low Risk"
64380,"Michael Mina Restaurant","252 California St",94111,37.793338,-122.399583,"(37.793338, -122.399583)",14155350791,"64380_20160414","4/14/16",86,"64380_20160414_103147","Inadequate ventilation or lighting","Low Risk"
3838,"CAFE PICARO","3120 16th St",94103,37.764908,-122.422442,"(37.764908, -122.422442)",14155434089,"3838_20180222","2/22/18",72,"3838_20180222_103144","Unapproved or unmaintained equipment or utensils","Low Risk"
4874,"JUMP START COFFEE & GROCERY","1192 GUERRERO St",94110,37.752118,-122.422914,"(37.752118, -122.422914)",14155647555,"4874_20160502","5/2/16",90,"4874_20160502_103149","Wiping cloths not clean or properly stored or inadequate sanitizer","Low Risk"
1641,"MARTHA & BROS. COFFEE CO","1551 Church St",94131,37.745974,-122.426856,"(37.745974, -122.426856)",14155641166,"1641_20160812","8/12/16",84,"1641_20160812_103145","Improper storage of equipment utensils or linens","Low Risk"
5033,"DESTINATION BAKING COMPANY","598 Chenery St",94131,37.734619,-122.432379,"(37.734619, -122.432379)",14155460730,"5033_20170104","1/4/17",86,"5033_20170104_103147","Inadequate ventilation or lighting","Low Risk"
5853,"RAOUL WALLENBERG HIGH SCHOOL","40 VEGA St",94115,37.780133,-122.445864,"(37.780133, -122.445864)",14155743469,"5853_20180227","2/27/18",94,"5853_20180227_103147","Inadequate ventilation or lighting","Low Risk"
19416,"Starbucks","865 Market St C26",94103,37.784317,-122.407563,"(37.784317, -122.407563)",14155604908,"19416_20180718","7/18/18",96,"19416_20180718_103154","Unclean or degraded floors walls or ceilings","Low Risk"
61856,"Yoppi Yogurt","101 California St",94111,37.793424,-122.398168,"(37.793424, -122.398168)",14155264677,"61856_20160413","4/13/16",90,"61856_20160413_103156","Permit license or inspection report not posted","Low Risk"
4804,"SUBWAY #31419","2599 SAN BRUNO Ave",94134,37.728933,-122.40413,"(37.728933, -122.40413)",14150540880,"4804_20161206","12/6/16",86,"4804_20161206_103150","Improper or defective plumbing","Low Risk"
5841,"JEFFERSON ELEMENTARY SCHOOL","1725 IRVING St",94122,37.763543,-122.476332,"(37.763543, -122.476332)",14155752821,"5841_20160506","5/6/16",91,"5841_20160506_103144","Unapproved or unmaintained equipment or utensils","Low Risk"
7744,"SAFEWAY #759","625 MONTEREY Blvd",94127,37.731523,-122.45005,"(37.731523, -122.45005)",14155582421,"7744_20160809","8/9/16",98,"7744_20160809_103144","Unapproved or unmaintained equipment or utensils","Low Risk"
32671,"La Taqueria Guadalajara","3146 24th St",94110,37.752512,-122.415109,"(37.752512, -122.415109)",14155644892,"32671_20180508","5/8/18",75,"32671_20180508_103154","Unclean or degraded floors walls or ceilings","Low Risk"
3267,"The Olive Garden Italian","3251 20th Ave",94132,37.728497,-122.475639,"(37.728497, -122.475639)",14155666770,"3267_20180510","5/10/18",83,"3267_20180510_103147","Inadequate ventilation or lighting","Low Risk"
33700,"Casa Guadalupe #3","2999 MISSION",94110,37.749194,-122.418116,"(37.749194, -122.418116)",14155875145,"33700_20160412","4/12/16",90,"33700_20160412_103145","Improper storage of equipment utensils or linens","Low Risk"
3253,"S F GOLF CLUB","1310 Junipero Serra Blvd",94132,37.711329,-122.471316,"(37.711329, -122.471316)",14155464100,"3253_20160413","4/13/16",88,"3253_20160413_103144","Unapproved or unmaintained equipment or utensils","Low Risk"
4917,"LA VICTORIA BAKERY","2937 24th St",94110,37.752373,-122.410876,"(37.752373, -122.410876)",14155647120,"4917_20160906","9/6/16",78,"4917_20160906_103142","Unclean nonfood contact surfaces","Low Risk"
4685,"NORMAN'S LIQUOR & DELI","733 Randolph St",94132,37.714204,-122.469193,"(37.714204, -122.469193)",14155580088,"4685_20161203","12/3/16",96,"4685_20161203_103144","Unapproved or unmaintained equipment or utensils","Low Risk"
62064,"California Grocery","123 Eddy St",94102,37.784303,-122.409647,"(37.784303, -122.409647)",14155448608,"62064_20160411","4/11/16",75,"62064_20160411_103139","Improper food storage","Low Risk"
4479,"Courtney's Produce II","101 CASTRO St",94114,37.767194,-122.435576,"(37.767194, -122.435576)",14155621850,"4479_20170105","1/5/17",92,"4479_20170105_103141","Improper food labeling or menu misrepresentation","Low Risk"
33700,"Casa Guadalupe #3","2999 MISSION",94110,37.749194,-122.418116,"(37.749194, -122.418116)",14155875145,"33700_20160412","4/12/16",90,"33700_20160412_103138","Improper storage use or identification of toxic substances","Low Risk"
64380,"Michael Mina Restaurant","252 California St",94111,37.793338,-122.399583,"(37.793338, -122.399583)",14155350791,"64380_20160414","4/14/16",86,"64380_20160414_103144","Unapproved or unmaintained equipment or utensils","Low Risk"
69181,"Cha-Ya Restaurant","762 Valencia St",94110,37.760777,-122.421505,"(37.760777, -122.421505)",14155257825,"69181_20160330","3/30/16",92,"69181_20160330_103144","Unapproved or unmaintained equipment or utensils","Low Risk"
774,"BAY VIEW BOAT CLUB","429 Terry Francois St",94107,37.772667,-122.387032,"(37.772667, -122.387032)",14155567650,"774_20161205","12/5/16",90,"774_20161205_103157","Food safety certificate or food handler card not available","Low Risk"
62578,"New Chef Hung's Restaurant","823 Clay St",94108,37.794193,-122.406677,"(37.794193, -122.406677)",14155396883,"62578_20171207","12/7/17",66,"62578_20171207_103141","Improper food labeling or menu misrepresentation","Low Risk"
3228,"THANH LONG RESTAURANT","4101 JUDAH St",94122,37.760383,-122.50609,"(37.760383, -122.50609)",14155257984,"3228_20160330","3/30/16",92,"3228_20160330_103157","Food safety certificate or food handler card not available","Low Risk"
7755,"ARIZMENDI BAKERY","1331 09th Ave",94122,37.763448,-122.466344,"(37.763448, -122.466344)",14155563117,"7755_20180904","9/4/18",92,"7755_20180904_103149","Wiping cloths not clean or properly stored or inadequate sanitizer","Low Risk"
69792,"Samiramis Imports","2990 MISSION St",94110,37.74923,-122.418224,"(37.74923, -122.418224)",14155826555,"69792_20160412","4/12/16",88,"69792_20160412_103177","Non service animal","Low Risk"
2497,"PLUTO'S","3258 SCOTT St",94123,37.799796,-122.441041,"(37.799796, -122.441041)",14155778867,"2497_20160607","6/7/16",85,"2497_20160607_103144","Unapproved or unmaintained equipment or utensils","Low Risk"
33160,"Mission Bay Cafe","550 Terry Francois St",94158,37.770518,-122.386525,"(37.770518, -122.386525)",14155831002,"33160_20161205","12/5/16",94,"33160_20161205_103165","No plan review or Building Permit","Low Risk"
69282,"New Jumbo Seafood Restaurant","1532 NORIEGA St",94122,37.754132,-122.480058,"(37.754132, -122.480058)",14155681800,"69282_20160413","4/13/16",76,"69282_20160413_103147","Inadequate ventilation or lighting","Low Risk"
2134,"CHIEFTAIN IRISH PUB, THE","198 05th St",94103,37.781567,-122.405059,"(37.781567, -122.405059)",14155610916,"2134_20171211","12/11/17",87,"2134_20171211_103154","Unclean or degraded floors walls or ceilings","Low Risk"
4917,"LA VICTORIA BAKERY","2937 24th St",94110,37.752373,-122.410876,"(37.752373, -122.410876)",14155647120,"4917_20160906","9/6/16",78,"4917_20160906_103154","Unclean or degraded floors walls or ceilings","Low Risk"
66536,"Cypress Grill","99 Harding Park Rd",94132,37.723698,-122.495289,"(37.723698, -122.495289)",14155664690,"66536_20160413","4/13/16",90,"66536_20160413_103149","Wiping cloths not clean or properly stored or inadequate sanitizer","Low Risk"
4794,"VICTOR'S","210 TOWNSEND St",94107,37.778634,-122.393089,"(37.778634, -122.393089)",14155607018,"4794_20170105","1/5/17",90,"4794_20170105_103157","Food safety certificate or food handler card not available","Low Risk"
999,"SERRANO'S PIZZA II","3274 21st St",94110,37.756997,-122.420534,"(37.756997, -122.420534)",14155691615,"999_20160503","5/3/16",81,"999_20160503_103149","Wiping cloths not clean or properly stored or inadequate sanitizer","Low Risk"
2638,"SF BAGEL CO. (KATZ BAGELS)","3147 16th St",94103,37.764814,-122.423089,"(37.764814, -122.423089)",14155559050,"2638_20180830","8/30/18",86,"2638_20180830_103144","Unapproved or unmaintained equipment or utensils","Low Risk"
68773,"Nopalito","1224 9th Ave",94122,37.765412,-122.466375,"(37.765412, -122.466375)",14155430303,"68773_20180214","2/14/18",90,"68773_20180214_103161","Low risk vermin infestation","Low Risk"
4787,"TONY BALONEY'S","1098 HOWARD St",94103,37.778033,-122.40943,"(37.778033, -122.40943)",14155861514,"4787_20160628","6/28/16",83,"4787_20160628_103157","Food safety certificate or food handler card not available","Low Risk"
3228,"THANH LONG RESTAURANT","4101 JUDAH St",94122,37.760383,-122.50609,"(37.760383, -122.50609)",14155257984,"3228_20160330","3/30/16",92,"3228_20160330_103144","Unapproved or unmaintained equipment or utensils","Low Risk"
7488,"EUROPA EXPRESS","746-750 LA PLAYA St",94121,37.774248,-122.510043,"(37.774248, -122.510043)",14155644917,"7488_20180209","2/9/18",94,"7488_20180209_103144","Unapproved or unmaintained equipment or utensils","Low Risk"
5905,"MARINA MIDDLE SCHOOL","3500 FILLMORE St",94123,37.801776,-122.43641,"(37.801776, -122.43641)",14155743495,"5905_20160325","3/25/16",92,"5905_20160325_103147","Inadequate ventilation or lighting","Low Risk"
4917,"LA VICTORIA BAKERY","2937 24th St",94110,37.752373,-122.410876,"(37.752373, -122.410876)",14155647120,"4917_20160906","9/6/16",78,"4917_20160906_103156","Permit license or inspection report not posted","Low Risk"
999,"SERRANO'S PIZZA II","3274 21st St",94110,37.756997,-122.420534,"(37.756997, -122.420534)",14155691615,"999_20160503","5/3/16",81,"999_20160503_103139","Improper food storage","Low Risk"
10886,"Taste of Formosa","2428 CLEMENT ST",94121,37.782018,-122.485421,"(37.782018, -122.485421)",14155666368,"10886_20180906","9/6/18",88,"10886_20180906_103162","Other low risk violation","Low Risk"
69792,"Samiramis Imports","2990 MISSION St",94110,37.74923,-122.418224,"(37.74923, -122.418224)",14155826555,"69792_20160412","4/12/16",88,"69792_20160412_103139","Improper food storage","Low Risk"
33700,"Casa Guadalupe #3","2999 MISSION",94110,37.749194,-122.418116,"(37.749194, -122.418116)",14155875145,"33700_20160412","4/12/16",90,"33700_20160412_103141","Improper food labeling or menu misrepresentation","Low Risk"
774,"BAY VIEW BOAT CLUB","429 Terry Francois St",94107,37.772667,-122.387032,"(37.772667, -122.387032)",14155567650,"774_20161205","12/5/16",90,"774_20161205_103145","Improper storage of equipment utensils or linens","Low Risk"
2755,"SOCIALE","3665 SACRAMENTO St",94118,37.787364,-122.45299,"(37.787364, -122.45299)",14155920309,"2755_20161205","12/5/16",85,"2755_20161205_103154","Unclean or degraded floors walls or ceilings","Low Risk"
2134,"CHIEFTAIN IRISH PUB, THE","198 05th St",94103,37.781567,-122.405059,"(37.781567, -122.405059)",14155610916,"2134_20161109","11/9/16",87,"2134_20161109_103142","Unclean nonfood contact surfaces","Low Risk"
5905,"MARINA MIDDLE SCHOOL","3500 FILLMORE St",94123,37.801776,-122.43641,"(37.801776, -122.43641)",14155743495,"5905_20160325","3/25/16",92,"5905_20160325_103145","Improper storage of equipment utensils or linens","Low Risk"
5951,"ST. THOMAS MORE","50 THOMAS MORE Way",94132,37.712259,-122.47308,"(37.712259, -122.47308)",14155330100,"5951_20160413","4/13/16",91,"5951_20160413_103157","Food safety certificate or food handler card not available","Low Risk"
1641,"MARTHA & BROS. COFFEE CO","1551 Church St",94131,37.745974,-122.426856,"(37.745974, -122.426856)",14155641166,"1641_20160812","8/12/16",84,"1641_20160812_103144","Unapproved or unmaintained equipment or utensils","Low Risk"
69282,"New Jumbo Seafood Restaurant","1532 NORIEGA St",94122,37.754132,-122.480058,"(37.754132, -122.480058)",14155681800,"69282_20160413","4/13/16",76,"69282_20160413_103149","Wiping cloths not clean or properly stored or inadequate sanitizer","Low Risk"
62064,"California Grocery","123 Eddy St",94102,37.784303,-122.409647,"(37.784303, -122.409647)",14155448608,"62064_20160411","4/11/16",75,"62064_20160411_103154","Unclean or degraded floors walls or ceilings","Low Risk"
3920,"BOSTON MARKET","2300 16th St",94103,37.765708,-122.409002,"(37.765708, -122.409002)",14155867666,"3920_20160516","5/16/16",88,"3920_20160516_103154","Unclean or degraded floors walls or ceilings","Low Risk"
5118,"KFC","1150 TARAVAL St",94116,37.742948,-122.478732,"(37.742948, -122.478732)",14155733314,"5118_20161207","12/7/16",98,"5118_20161207_103154","Unclean or degraded floors walls or ceilings","Low Risk"
1005,"CHAVITA'S MEXICAN RESTAURANT","3006 MISSION St",94110,37.748855,-122.418134,"(37.748855, -122.418134)",14155286927,"1005_20160502","5/2/16",84,"1005_20160502_103154","Unclean or degraded floors walls or ceilings","Low Risk"
5033,"DESTINATION BAKING COMPANY","598 Chenery St",94131,37.734619,-122.432379,"(37.734619, -122.432379)",14155460730,"5033_20170104","1/4/17",86,"5033_20170104_103142","Unclean nonfood contact surfaces","Low Risk"
62064,"California Grocery","123 Eddy St",94102,37.784303,-122.409647,"(37.784303, -122.409647)",14155448608,"62064_20160411","4/11/16",75,"62064_20160411_103144","Unapproved or unmaintained equipment or utensils","Low Risk"
3253,"S F GOLF CLUB","1310 Junipero Serra Blvd",94132,37.711329,-122.471316,"(37.711329, -122.471316)",14155464100,"3253_20160413","4/13/16",88,"3253_20160413_103149","Wiping cloths not clean or properly stored or inadequate sanitizer","Low Risk"
5999,"The Salvation Army","1156 Valencia St",94110,37.754397,-122.420915,"(37.754397, -122.420915)",14155640260,"5999_20180724","7/24/18",90,"5999_20180724_103157","Food safety certificate or food handler card not available","Low Risk"
5033,"DESTINATION BAKING COMPANY","598 Chenery St",94131,37.734619,-122.432379,"(37.734619, -122.432379)",14155460730,"5033_20170104","1/4/17",86,"5033_20170104_103154","Unclean or degraded floors walls or ceilings","Low Risk"
28044,"Century Theatres","845 Market St Suite 500",94103,37.784848,-122.406892,"(37.784848, -122.406892)",14155538422,"28044_20171212","12/12/17",98,"28044_20171212_103154","Unclean or degraded floors walls or ceilings","Low Risk"
1005,"CHAVITA'S MEXICAN RESTAURANT","3006 MISSION St",94110,37.748855,-122.418134,"(37.748855, -122.418134)",14155286927,"1005_20160502","5/2/16",84,"1005_20160502_103149","Wiping cloths not clean or properly stored or inadequate sanitizer","Low Risk"
5033,"DESTINATION BAKING COMPANY","598 Chenery St",94131,37.734619,-122.432379,"(37.734619, -122.432379)",14155460730,"5033_20170104","1/4/17",86,"5033_20170104_103156","Permit license or inspection report not posted","Low Risk"
4864,"DRAGON CITY BAKERY & CAFE","2367 MISSION St",94110,37.759174,-122.419066,"(37.759174, -122.419066)",14155829718,"4864_20161206","12/6/16",84,"4864_20161206_103161","Low risk vermin infestation","Low Risk"
3869,"SAFEWAY #739","3350 MISSION St",94110,37.742998,-122.421638,"(37.742998, -122.421638)",14155822866,"3869_20180608","6/8/18",94,"3869_20180608_103139","Improper food storage","Low Risk"
300,"SUBWAY","2001 VAN NESS Ave",94109,37.794134,-122.423234,"(37.794134, -122.423234)",14155779929,"300_20171208","12/8/17",86,"300_20171208_103143","Inadequate warewashing facilities or equipment","Low Risk"
60544,"Manzoni","2790 Diamond St",94131,37.73473,-122.433823,"(37.73473, -122.433823)",14155332251,"60544_20160929","9/29/16",92,"60544_20160929_103156","Permit license or inspection report not posted","Low Risk"
7488,"EUROPA EXPRESS","746-750 LA PLAYA St",94121,37.774248,-122.510043,"(37.774248, -122.510043)",14155644917,"7488_20180209","2/9/18",94,"7488_20180209_103161","Low risk vermin infestation","Low Risk"
62064,"California Grocery","123 Eddy St",94102,37.784303,-122.409647,"(37.784303, -122.409647)",14155448608,"62064_20160411","4/11/16",75,"62064_20160411_103145","Improper storage of equipment utensils or linens","Low Risk"
1641,"MARTHA & BROS. COFFEE CO","1551 Church St",94131,37.745974,-122.426856,"(37.745974, -122.426856)",14155641166,"1641_20160812","8/12/16",84,"1641_20160812_103161","Low risk vermin infestation","Low Risk"
774,"BAY VIEW BOAT CLUB","429 Terry Francois St",94107,37.772667,-122.387032,"(37.772667, -122.387032)",14155567650,"774_20161205","12/5/16",90,"774_20161205_103177","Non service animal","Low Risk"
774,"BAY VIEW BOAT CLUB","429 Terry Francois St",94107,37.772667,-122.387032,"(37.772667, -122.387032)",14155567650,"774_20161205","12/5/16",90,"774_20161205_103148","No thermometers or uncalibrated thermometers","Low Risk"
63124,"Marengo on Union","1980 Union St Upper Street Level",94123,37.797578,-122.431883,"(37.797578, -122.431883)",14155442575,"63124_20160929","9/29/16",94,"63124_20160929_103149","Wiping cloths not clean or properly stored or inadequate sanitizer","Low Risk"
63082,"The Brick Yard","1787 Union St",94123,37.797933,-122.428627,"(37.797933, -122.428627)",14156677676,"63082_20180222","2/22/18",87,"63082_20180222_103152","Unclean unmaintained or improperly constructed toilet facilities","Low Risk"
4907,"JIM GEORGIE'S DONUT","2799 16th St",94103,37.765262,-122.41523,"(37.765262, -122.41523)",14155867112,"4907_20170105","1/5/17",80,"4907_20170105_103145","Improper storage of equipment utensils or linens","Low Risk"
71909,"Shanghai Dumpling King 2","696 Monterey Blvd",94127,37.731568,-122.45097,"(37.731568, -122.45097)",14155232380,"71909_20171213","12/13/17",92,"71909_20171213_103154","Unclean or degraded floors walls or ceilings","Low Risk"
5952,"IMMACULATE CONCPTION ACADEMY","3625 24th St",94110,37.751923,-122.423558,"(37.751923, -122.423558)",14155822052,"5952_20180226","2/26/18",98,"5952_20180226_103144","Unapproved or unmaintained equipment or utensils","Low Risk"
2369,"CLOONEY'S","1401 Valencia St",94110,37.750374,-122.420456,"(37.750374, -122.420456)",14155824988,"2369_20160324","3/24/16",86,"2369_20160324_103149","Wiping cloths not clean or properly stored or inadequate sanitizer","Low Risk"
4685,"NORMAN'S LIQUOR & DELI","733 Randolph St",94132,37.714204,-122.469193,"(37.714204, -122.469193)",14155580088,"4685_20160329","3/29/16",94,"4685_20160329_103152","Unclean unmaintained or improperly constructed toilet facilities","Low Risk"
2497,"PLUTO'S","3258 SCOTT St",94123,37.799796,-122.441041,"(37.799796, -122.441041)",14155778867,"2497_20160607","6/7/16",85,"2497_20160607_103150","Improper or defective plumbing","Low Risk"
5877,"CLAIRE LILIENTHAL SCHOOL-MADISON CA","3950 SACRAMENTO St",94118,37.786808,-122.458014,"(37.786808, -122.458014)",14155758603,"5877_20160411","4/11/16",94,"5877_20160411_103149","Wiping cloths not clean or properly stored or inadequate sanitizer","Low Risk"
3839,"EL TORO TAQUERIA","598 VALENCIA St",94110,37.763458,-122.421784,"(37.763458, -122.421784)",14155433351,"3839_20160815","8/15/16",87,"3839_20160815_103157","Food safety certificate or food handler card not available","Low Risk"
4787,"TONY BALONEY'S","1098 HOWARD St",94103,37.778033,-122.40943,"(37.778033, -122.40943)",14155861514,"4787_20160628","6/28/16",83,"4787_20160628_103154","Unclean or degraded floors walls or ceilings","Low Risk"
1641,"MARTHA & BROS. COFFEE CO","1551 Church St",94131,37.745974,-122.426856,"(37.745974, -122.426856)",14155641166,"1641_20160812","8/12/16",84,"1641_20160812_103154","Unclean or degraded floors walls or ceilings","Low Risk"
2421,"ST FRANCIS FOUNTAIN","2801 24th St",94110,37.752833,-122.408349,"(37.752833, -122.408349)",14155824200,"2421_20160120","1/20/16",85,"2421_20160120_103142","Unclean nonfood contact surfaces","Low Risk"
4917,"LA VICTORIA BAKERY","2937 24th St",94110,37.752373,-122.410876,"(37.752373, -122.410876)",14155647120,"4917_20160906","9/6/16",78,"4917_20160906_103144","Unapproved or unmaintained equipment or utensils","Low Risk"
64805,"Andersen Bread","1390 Market St Suite 110",94102,37.777053,-122.416939,"(37.777053, -122.416939)",14150427100,"64805_20170105","1/5/17",94,"64805_20170105_103161","Low risk vermin infestation","Low Risk"
69181,"Cha-Ya Restaurant","762 Valencia St",94110,37.760777,-122.421505,"(37.760777, -122.421505)",14155257825,"69181_20160330","3/30/16",92,"69181_20160330_103149","Wiping cloths not clean or properly stored or inadequate sanitizer","Low Risk"
63618,"Contraband Coffee LLC","1415 Larkin St",94109,37.790933,-122.41914,"(37.790933, -122.41914)",14155221520,"63618_20160328","3/28/16",96,"63618_20160328_103149","Wiping cloths not clean or properly stored or inadequate sanitizer","Low Risk"
64379,"Piccadilly Fish & Chips","1348 Polk St",94109,37.789299,-122.420352,"(37.789299, -122.420352)",14155776477,"64379_20180911","9/11/18",92,"64379_20180911_103154","Unclean or degraded floors walls or ceilings","Low Risk"
773,"MARIPOSA HUNTERS POINT YACHT CLUB","405 TERRY FRANCOIS Blvd",94107,37.77325,-122.387222,"(37.77325, -122.387222)",14155789296,"773_20161205","12/5/16",96,"773_20161205_103144","Unapproved or unmaintained equipment or utensils","Low Risk"
4643,"CHEUNG HING CHINESE DELI & MEAT INC","323 Clement St",94118,37.782993,-122.462709,"(37.782993, -122.462709)",14155754259,"4643_20160512","5/12/16",67,"4643_20160512_103139","Improper food storage","Low Risk"
903,"Sabra Restaurant","419 Grant Ave",94108,37.790874,-122.405634,"(37.790874, -122.405634)",14155983656,"903_20171211","12/11/17",91,"903_20171211_103144","Unapproved or unmaintained equipment or utensils","Low Risk"
5634,"AT&T - COMMISARY KITCHEN [145184]","24 WILLIE MAYS PLAZA 1.24.06",94107,37.778382,-122.391151,"(37.778382, -122.391151)",14155971500,"5634_20160814","8/14/16",98,"5634_20160814_103144","Unapproved or unmaintained equipment or utensils","Low Risk"
4787,"TONY BALONEY'S","1098 HOWARD St",94103,37.778033,-122.40943,"(37.778033, -122.40943)",14155861514,"4787_20160628","6/28/16",83,"4787_20160628_103156","Permit license or inspection report not posted","Low Risk"
5908,"SHERMAN ELEMENTARY SCHOOL","1651 UNION St",94123,37.798243,-122.426167,"(37.798243, -122.426167)",14155743530,"5908_20160325","3/25/16",96,"5908_20160325_103144","Unapproved or unmaintained equipment or utensils","Low Risk"
5905,"MARINA MIDDLE SCHOOL","3500 FILLMORE St",94123,37.801776,-122.43641,"(37.801776, -122.43641)",14155743495,"5905_20180215","2/15/18",96,"5905_20180215_103147","Inadequate ventilation or lighting","Low Risk"
1339,"HIGHER GROUNDS","691 CHENERY St",94131,37.734483,-122.43368,"(37.734483, -122.43368)",14155582933,"1339_20160414","4/14/16",90,"1339_20160414_103154","Unclean or degraded floors walls or ceilings","Low Risk"
4479,"Courtney's Produce II","101 CASTRO St",94114,37.767194,-122.435576,"(37.767194, -122.435576)",14155621850,"4479_20170105","1/5/17",92,"4479_20170105_103157","Food safety certificate or food handler card not available","Low Risk"
69769,"Whole Foods Market","1150 Ocean Ave",94112,37.723652,-122.45461,"(37.723652, -122.45461)",14155337400,"69769_20180725","7/25/18",90,"69769_20180725_103161","Low risk vermin infestation","Low Risk"
18826,"Fresca Restaurant","2114 FILLMORE St",94115,37.789074,-122.433783,"(37.789074, -122.433783)",14155442668,"18826_20160926","9/26/16",83,"18826_20160926_103154","Unclean or degraded floors walls or ceilings","Low Risk"
4801,"YICK'S LIQUOR","4701 MISSION St",94112,37.72304,-122.436017,"(37.72304, -122.436017)",14155582662,"4801_20161110","11/10/16",94,"4801_20161110_103139","Improper food storage","Low Risk"
4917,"LA VICTORIA BAKERY","2937 24th St",94110,37.752373,-122.410876,"(37.752373, -122.410876)",14155647120,"4917_20160906","9/6/16",78,"4917_20160906_103150","Improper or defective plumbing","Low Risk"
5854,"Gateway High/Kip Schools","1430 Scott St",94115,37.783427,-122.437747,"(37.783427, -122.437747)",14155743600,"5854_20180227","2/27/18",98,"5854_20180227_103144","Unapproved or unmaintained equipment or utensils","Low Risk"
32586,"Terroir","81 Langton St",94103,37.776494,-122.408562,"(37.776494, -122.408562)",14155718949,"32586_20160906","9/6/16",96,"32586_20160906_103156","Permit license or inspection report not posted","Low Risk"
2357,"CHINA EXPRESS","2798 MISSION St",94110,37.752408,-122.418535,"(37.752408, -122.418535)",14155640881,"2357_20180723","7/23/18",81,"2357_20180723_103142","Unclean nonfood contact surfaces","Low Risk"
59838,"OTD","2232 Bush St",94115,37.786988,-122.434074,"(37.786988, -122.434074)",14155929578,"59838_20180723","7/23/18",80,"59838_20180723_103144","Unapproved or unmaintained equipment or utensils","Low Risk"
1339,"HIGHER GROUNDS","691 CHENERY St",94131,37.734483,-122.43368,"(37.734483, -122.43368)",14155582933,"1339_20160414","4/14/16",90,"1339_20160414_103144","Unapproved or unmaintained equipment or utensils","Low Risk"
3920,"BOSTON MARKET","2300 16th St",94103,37.765708,-122.409002,"(37.765708, -122.409002)",14155867666,"3920_20160516","5/16/16",88,"3920_20160516_103149","Wiping cloths not clean or properly stored or inadequate sanitizer","Low Risk"
300,"SUBWAY","2001 VAN NESS Ave",94109,37.794134,-122.423234,"(37.794134, -122.423234)",14155779929,"300_20160413","4/13/16",68,"300_20160413_103149","Wiping cloths not clean or properly stored or inadequate sanitizer","Low Risk"
7361,"PastaGina","741 Diamond St",94114,37.751403,-122.436286,"(37.751403, -122.436286)",14155280738,"7361_20160503","5/3/16",86,"7361_20160503_103149","Wiping cloths not clean or properly stored or inadequate sanitizer","Low Risk"
773,"MARIPOSA HUNTERS POINT YACHT CLUB","405 TERRY FRANCOIS Blvd",94107,37.77325,-122.387222,"(37.77325, -122.387222)",14155789296,"773_20161205","12/5/16",96,"773_20161205_103154","Unclean or degraded floors walls or ceilings","Low Risk"
71909,"Shanghai Dumpling King 2","696 Monterey Blvd",94127,37.731568,-122.45097,"(37.731568, -122.45097)",14155232380,"71909_20171213","12/13/17",92,"71909_20171213_103147","Inadequate ventilation or lighting","Low Risk"
13814,"Go Go Market & Deli","99 09th St",94103,37.774722,-122.406761,"(37.774722, -122.406761)",14155863536,"13814_20160930","9/30/16",82,"13814_20160930_103154","Unclean or degraded floors walls or ceilings","Low Risk"
19416,"Starbucks","865 Market St C26",94103,37.784317,-122.407563,"(37.784317, -122.407563)",14155604908,"19416_20160629","6/29/16",94,"19416_20160629_103154","Unclean or degraded floors walls or ceilings","Low Risk"
5815,"ALVARADO ELEMENTARY SCHOOL","625  DOUGLASS St",94114,37.753684,-122.438696,"(37.753684, -122.438696)",14155695695,"5815_20160503","5/3/16",90,"5815_20160503_103161","Low risk vermin infestation","Low Risk"
65086,"Bun Mee","2015 FILLMORE St",94115,37.788193,-122.433714,"(37.788193, -122.433714)",14155807696,"65086_20180905","9/5/18",88,"65086_20180905_103144","Unapproved or unmaintained equipment or utensils","Low Risk"
2352,"SMILE'S  B.B.Q.","2619 MISSION St",94110,37.755013,-122.418665,"(37.755013, -122.418665)",14155281596,"2352_20180719","7/19/18",90,"2352_20180719_103142","Unclean nonfood contact surfaces","Low Risk"
19416,"Starbucks","865 Market St C26",94103,37.784317,-122.407563,"(37.784317, -122.407563)",14155604908,"19416_20180718","7/18/18",96,"19416_20180718_103153","Inadequate dressing rooms or improper storage of personal items","Low Risk"
557,"KATIA'S","600 05th Ave",94118,37.77721,-122.462874,"(37.77721, -122.462874)",14155669292,"557_20160629","6/29/16",85,"557_20160629_103136","Unsanitary employee garments hair or nails","Low Risk"
5033,"DESTINATION BAKING COMPANY","598 Chenery St",94131,37.734619,-122.432379,"(37.734619, -122.432379)",14155460730,"5033_20160414","4/14/16",94,"5033_20160414_103144","Unapproved or unmaintained equipment or utensils","Low Risk"
5812,"Zaida T. Rodriguez (ZTR) Annex Child Development Center","421  BARTLETT St",94110,37.750243,-122.419293,"(37.750243, -122.419293)",14155695844,"5812_20180223","2/23/18",98,"5812_20180223_103161","Low risk vermin infestation","Low Risk"
4907,"JIM GEORGIE'S DONUT","2799 16th St",94103,37.765262,-122.41523,"(37.765262, -122.41523)",14155867112,"4907_20170105","1/5/17",80,"4907_20170105_103144","Unapproved or unmaintained equipment or utensils","Low Risk"
5033,"DESTINATION BAKING COMPANY","598 Chenery St",94131,37.734619,-122.432379,"(37.734619, -122.432379)",14155460730,"5033_20170104","1/4/17",86,"5033_20170104_103157","Food safety certificate or food handler card not available","Low Risk"
1778,"Academy Bar & Kitchen","1800 Fillmore St",94115,37.786498,-122.430283,"(37.786498, -122.430283)",14155771800,"1778_20171213","12/13/17",94,"1778_20171213_103144","Unapproved or unmaintained equipment or utensils","Low Risk"
557,"KATIA'S","600 05th Ave",94118,37.77721,-122.462874,"(37.77721, -122.462874)",14155669292,"557_20160629","6/29/16",85,"557_20160629_103144","Unapproved or unmaintained equipment or utensils","Low Risk"
5794,"LINCOLN HIGH SCHOOL","2162 24th Ave",94116,37.747228,-122.481299,"(37.747228, -122.481299)",14155752700,"5794_20160907","9/7/16",96,"5794_20160907_103144","Unapproved or unmaintained equipment or utensils","Low Risk"
4907,"JIM GEORGIE'S DONUT","2799 16th St",94103,37.765262,-122.41523,"(37.765262, -122.41523)",14155867112,"4907_20170105","1/5/17",80,"4907_20170105_103149","Wiping cloths not clean or properly stored or inadequate sanitizer","Low Risk"
2555,"EXTREME PIZZA","1980 UNION St",94123,37.797578,-122.431883,"(37.797578, -122.431883)",14155928234,"2555_20160929","9/29/16",96,"2555_20160929_103144","Unapproved or unmaintained equipment or utensils","Low Risk"
1734,"SAI JAI THAI","771 O'FARRELL St",94109,37.785182,-122.417409,"(37.785182, -122.417409)",14155675774,"1734_20160311","3/11/16",82,"1734_20160311_103145","Improper storage of equipment utensils or linens","Low Risk"
2555,"EXTREME PIZZA","1980 UNION St",94123,37.797578,-122.431883,"(37.797578, -122.431883)",14155928234,"2555_20160929","9/29/16",96,"2555_20160929_103149","Wiping cloths not clean or properly stored or inadequate sanitizer","Low Risk"
5808,"BALBOA HIGH SCHOOL","1000 CAYUGA Ave",94112,37.722067,-122.43983,"(37.722067, -122.43983)",14155464090,"5808_20160908","9/8/16",98,"5808_20160908_103153","Inadequate dressing rooms or improper storage of personal items","Low Risk"
774,"BAY VIEW BOAT CLUB","429 Terry Francois St",94107,37.772667,-122.387032,"(37.772667, -122.387032)",14155567650,"774_20161205","12/5/16",90,"774_20161205_103154","Unclean or degraded floors walls or ceilings","Low Risk"
4884,"LUCCA RAVIOLI CO","1100 VALENCIA St",94110,37.755177,-122.420995,"(37.755177, -122.420995)",14155645581,"4884_20171211","12/11/17",98,"4884_20171211_103161","Low risk vermin infestation","Low Risk"
63493,"The Golden West","8 Trinity Pl",94104,37.790053,-122.402586,"(37.790053, -122.402586)",14155270896,"63493_20151222","12/22/15",83,"63493_20151222_103154","Unclean or degraded floors walls or ceilings","Low Risk"
38530,"Portico IV","550 Market St",94104,37.789804,-122.40077,"(37.789804, -122.40077)",14155399994,"38530_20160512","5/12/16",85,"38530_20160512_103154","Unclean or degraded floors walls or ceilings","Low Risk"
7361,"PastaGina","741 Diamond St",94114,37.751403,-122.436286,"(37.751403, -122.436286)",14155280738,"7361_20160503","5/3/16",86,"7361_20160503_103157","Food safety certificate or food handler card not available","Low Risk"
4907,"JIM GEORGIE'S DONUT","2799 16th St",94103,37.765262,-122.41523,"(37.765262, -122.41523)",14155867112,"4907_20170105","1/5/17",80,"4907_20170105_103154","Unclean or degraded floors walls or ceilings","Low Risk"
5033,"DESTINATION BAKING COMPANY","598 Chenery St",94131,37.734619,-122.432379,"(37.734619, -122.432379)",14155460730,"5033_20160414","4/14/16",94,"5033_20160414_103157","Food safety certificate or food handler card not available","Low Risk"
64524,"Fresca Restaurant","737 IRVING St",94122,37.764033,-122.4659,"(37.764033, -122.4659)",14155745727,"64524_20160630","6/30/16",96,"64524_20160630_103145","Improper storage of equipment utensils or linens","Low Risk"
59002,"Yummy Bakery & Restaurant","607 Jackson St",94133,37.796152,-122.405255,"(37.796152, -122.405255)",14155988388,"59002_20180515","5/15/18",92,"59002_20180515_103139","Improper food storage","Low Risk"
4797,"Good Life Grocery, The","448 CORTLAND Ave",94110,37.739053,-122.416683,"(37.739053, -122.416683)",14155643221,"4797_20171130","11/30/17",86,"4797_20171130_103139","Improper food storage","Low Risk"
3869,"SAFEWAY #739","3350 MISSION St",94110,37.742998,-122.421638,"(37.742998, -122.421638)",14155822866,"3869_20180608","6/8/18",94,"3869_20180608_103150","Improper or defective plumbing","Low Risk"
37651,"Jack In The Box #545","400 Geary St",94102,37.787168,-122.410124,"(37.787168, -122.410124)",14155670868,"37651_20161114","11/14/16",87,"37651_20161114_103144","Unapproved or unmaintained equipment or utensils","Low Risk"
71532,"Xpresso Tea","6901 Geary Blvd",94121,37.779663,-122.493618,"(37.779663, -122.493618)",14155277367,"71532_20160330","3/30/16",96,"71532_20160330_103154","Unclean or degraded floors walls or ceilings","Low Risk"
19416,"Starbucks","865 Market St C26",94103,37.784317,-122.407563,"(37.784317, -122.407563)",14155604908,"19416_20160629","6/29/16",94,"19416_20160629_103156","Permit license or inspection report not posted","Low Risk"
4907,"JIM GEORGIE'S DONUT","2799 16th St",94103,37.765262,-122.41523,"(37.765262, -122.41523)",14155867112,"4907_20170105","1/5/17",80,"4907_20170105_103142","Unclean nonfood contact surfaces","Low Risk"
2755,"SOCIALE","3665 SACRAMENTO St",94118,37.787364,-122.45299,"(37.787364, -122.45299)",14155920309,"2755_20161205","12/5/16",85,"2755_20161205_103144","Unapproved or unmaintained equipment or utensils","Low Risk"
65725,"Le Meridien SF Park Grill Restaurant & Bar","333 Battery St Level 2 & 3",94111,37.799005,-122.399862,"(37.799005, -122.399862)",14155292904,"65725_20161108","11/8/16",92,"65725_20161108_103154","Unclean or degraded floors walls or ceilings","Low Risk"
65725,"Le Meridien SF Park Grill Restaurant & Bar","333 Battery St Level 2 & 3",94111,37.799005,-122.399862,"(37.799005, -122.399862)",14155292904,"65725_20161108","11/8/16",92,"65725_20161108_103143","Inadequate warewashing facilities or equipment","Low Risk"
1381,"PEBBLE'S CAFE","2852 Diamond St",94131,37.73382,-122.434093,"(37.73382, -122.434093)",14155332270,"1381_20180719","7/19/18",96,"1381_20180719_103144","Unapproved or unmaintained equipment or utensils","Low Risk"
62277,"Tacos San Buena","16th & Shotwell St",94102,37.779847,-122.418985,"(37.779847, -122.418985)",14155556127,"62277_20180221","2/21/18",87,"62277_20180221_103144","Unapproved or unmaintained equipment or utensils","Low Risk"
7361,"PastaGina","741 Diamond St",94114,37.751403,-122.436286,"(37.751403, -122.436286)",14155280738,"7361_20160503","5/3/16",86,"7361_20160503_103161","Low risk vermin infestation","Low Risk"
3869,"SAFEWAY #739","3350 MISSION St",94110,37.742998,-122.421638,"(37.742998, -122.421638)",14155822866,"3869_20180608","6/8/18",94,"3869_20180608_103149","Wiping cloths not clean or properly stored or inadequate sanitizer","Low Risk"
61816,"Bullitt","2209 Polk St",94109,37.797114,-122.422034,"(37.797114, -122.422034)",14155995053,"61816_20170508","5/8/17",80,"61816_20170508_103154","Unclean or degraded floors walls or ceilings","Low Risk"
3621,"JIM'S RESTAURANT","2420 MISSION St",94110,37.758271,-122.419081,"(37.758271, -122.419081)",14155286020,"3621_20160908","9/8/16",92,"3621_20160908_103154","Unclean or degraded floors walls or ceilings","Low Risk"
5033,"DESTINATION BAKING COMPANY","598 Chenery St",94131,37.734619,-122.432379,"(37.734619, -122.432379)",14155460730,"5033_20160414","4/14/16",94,"5033_20160414_103154","Unclean or degraded floors walls or ceilings","Low Risk"
60544,"Manzoni","2790 Diamond St",94131,37.73473,-122.433823,"(37.73473, -122.433823)",14155332251,"60544_20160415","4/15/16",98,"60544_20160415_103157","Food safety certificate or food handler card not available","Low Risk"
38530,"Portico IV","550 Market St",94104,37.789804,-122.40077,"(37.789804, -122.40077)",14155399994,"38530_20160512","5/12/16",85,"38530_20160512_103144","Unapproved or unmaintained equipment or utensils","Low Risk"
7755,"ARIZMENDI BAKERY","1331 09th Ave",94122,37.763448,-122.466344,"(37.763448, -122.466344)",14155563117,"7755_20180904","9/4/18",92,"7755_20180904_103154","Unclean or degraded floors walls or ceilings","Low Risk"
5118,"KFC","1150 TARAVAL St",94116,37.742948,-122.478732,"(37.742948, -122.478732)",14155733314,"5118_20160512","5/12/16",98,"5118_20160512_103154","Unclean or degraded floors walls or ceilings","Low Risk"
62578,"New Chef Hung's Restaurant","823 Clay St",94108,37.794193,-122.406677,"(37.794193, -122.406677)",14155396883,"62578_20171207","12/7/17",66,"62578_20171207_103154","Unclean or degraded floors walls or ceilings","Low Risk"
5919,"SAN FRANCISCO DAY SCHOOL","350 MASONIC St",94118,37.777988,-122.446877,"(37.777988, -122.446877)",14155932422,"5919_20180914","9/14/18",98,"5919_20180914_103144","Unapproved or unmaintained equipment or utensils","Low Risk"
7636,"LEE'S FOOD MARKET","1397 Revere Ave",94124,37.729455,-122.386364,"(37.729455, -122.386364)",14155822818,"7636_20161019","10/19/16",81,"7636_20161019_103154","Unclean or degraded floors walls or ceilings","Low Risk"
37651,"Jack In The Box #545","400 Geary St",94102,37.787168,-122.410124,"(37.787168, -122.410124)",14155670868,"37651_20161114","11/14/16",87,"37651_20161114_103142","Unclean nonfood contact surfaces","Low Risk"
7361,"PastaGina","741 Diamond St",94114,37.751403,-122.436286,"(37.751403, -122.436286)",14155280738,"7361_20160503","5/3/16",86,"7361_20160503_103139","Improper food storage","Low Risk"
32671,"La Taqueria Guadalajara","3146 24th St",94110,37.752512,-122.415109,"(37.752512, -122.415109)",14155644892,"32671_20180508","5/8/18",75,"32671_20180508_103156","Permit license or inspection report not posted","Low Risk"
5794,"LINCOLN HIGH SCHOOL","2162 24th Ave",94116,37.747228,-122.481299,"(37.747228, -122.481299)",14155752700,"5794_20160907","9/7/16",96,"5794_20160907_103154","Unclean or degraded floors walls or ceilings","Low Risk"
6007,"BAYVIEE HUNTER Pt. ADULT DAY HE","1250 LA SALLE",94124,37.73241,-122.383559,"(37.73241, -122.383559)",14155824774,"6007_20180718","7/18/18",94,"6007_20180718_103144","Unapproved or unmaintained equipment or utensils","Low Risk"
19416,"Starbucks","865 Market St C26",94103,37.784317,-122.407563,"(37.784317, -122.407563)",14155604908,"19416_20160629","6/29/16",94,"19416_20160629_103144","Unapproved or unmaintained equipment or utensils","Low Risk"
37651,"Jack In The Box #545","400 Geary St",94102,37.787168,-122.410124,"(37.787168, -122.410124)",14155670868,"37651_20161114","11/14/16",87,"37651_20161114_103154","Unclean or degraded floors walls or ceilings","Low Risk"
7361,"PastaGina","741 Diamond St",94114,37.751403,-122.436286,"(37.751403, -122.436286)",14155280738,"7361_20160503","5/3/16",86,"7361_20160503_103153","Inadequate dressing rooms or improper storage of personal items","Low Risk"
70494,"The Little Chihuahua Mexican Restaurant","581 VALENCIA St",94110,37.763664,-122.421736,"(37.763664, -122.421736)",14155207111,"70494_20160216","2/16/16",92,"70494_20160216_103154","Unclean or degraded floors walls or ceilings","Low Risk"
63047,"Roam Artisan Burgers","1785 UNION St",94123,37.797954,-122.428477,"(37.797954, -122.428477)",14155414247,"63047_20160906","9/6/16",91,"63047_20160906_103149","Wiping cloths not clean or properly stored or inadequate sanitizer","Low Risk"
1339,"HIGHER GROUNDS","691 CHENERY St",94131,37.734483,-122.43368,"(37.734483, -122.43368)",14155582933,"1339_20160414","4/14/16",90,"1339_20160414_103149","Wiping cloths not clean or properly stored or inadequate sanitizer","Low Risk"
36160,"Zabb","4440 Mission St",94112,37.726489,-122.433485,"(37.726489, -122.433485)",14155582455,"36160_20161208","12/8/16",94,"36160_20161208_103142","Unclean nonfood contact surfaces","Low Risk"
7095,"ABE'S MARKET","378 FILLMORE St",94117,37.772822,-122.430498,"(37.772822, -122.430498)",14155862576,"7095_20171211","12/11/17",92,"7095_20171211_103144","Unapproved or unmaintained equipment or utensils","Low Risk"
557,"KATIA'S","600 05th Ave",94118,37.77721,-122.462874,"(37.77721, -122.462874)",14155669292,"557_20160629","6/29/16",85,"557_20160629_103147","Inadequate ventilation or lighting","Low Risk"
1950,"BULLSHEAD RESTAURANT","840 ULLOA St",94127,37.740785,-122.465507,"(37.740785, -122.465507)",14155664350,"1950_20170126","1/26/17",89,"1950_20170126_103142","Unclean nonfood contact surfaces","Low Risk"
4881,"STOP N SHOP","3000 Mission St",94110,37.748924,-122.418144,"(37.748924, -122.418144)",14155550905,"4881_20161021","10/21/16",90,"4881_20161021_103141","Improper food labeling or menu misrepresentation","Low Risk"
1626,"LUPA TRATTORIA","4109 24th St",94114,37.751243,-122.434529,"(37.751243, -122.434529)",14155644664,"1626_20161003","10/3/16",92,"1626_20161003_103142","Unclean nonfood contact surfaces","Low Risk"
2315,"TAQUERIA CAN-CUN","2288 MISSION St",94110,37.760487,-122.419285,"(37.760487, -122.419285)",14155259560,"2315_20161207","12/7/16",88,"2315_20161207_103154","Unclean or degraded floors walls or ceilings","Low Risk"
1249,"KABABAYAN FAST FOOD","2706 MISSION St",94110,37.753691,-122.418657,"(37.753691, -122.418657)",14155929635,"1249_20180515","5/15/18",74,"1249_20180515_103142","Unclean nonfood contact surfaces","Low Risk"
7207,"GOLDEN PRODUCE","172 CHURCH St",94114,37.768187,-122.429024,"(37.768187, -122.429024)",14155431536,"7207_20170105","1/5/17",92,"7207_20170105_103139","Improper food storage","Low Risk"
62308,"Sam's Diner","1220 Market Street",94102,37.778497,-122.415146,"(37.778497, -122.415146)",14155628590,"62308_20160203","2/3/16",72,"62308_20160203_103154","Unclean or degraded floors walls or ceilings","Low Risk"
3621,"JIM'S RESTAURANT","2420 MISSION St",94110,37.758271,-122.419081,"(37.758271, -122.419081)",14155286020,"3621_20160908","9/8/16",92,"3621_20160908_103149","Wiping cloths not clean or properly stored or inadequate sanitizer","Low Risk"
5607,"SFSU STATION CAFE","1600 Holloway Ave",94132,37.720851,-122.477084,"(37.720851, -122.477084)",14155374525,"5607_20171128","11/28/17",87,"5607_20171128_103144","Unapproved or unmaintained equipment or utensils","Low Risk"
5010,"LATTE EXPRESS","48 05th St",94103,37.783225,-122.407252,"(37.783225, -122.407252)",14155287328,"5010_20160331","3/31/16",92,"5010_20160331_103139","Improper food storage","Low Risk"
63618,"Contraband Coffee LLC","1415 Larkin St",94109,37.790933,-122.41914,"(37.790933, -122.41914)",14155221520,"63618_20160328","3/28/16",96,"63618_20160328_103154","Unclean or degraded floors walls or ceilings","Low Risk"
64524,"Fresca Restaurant","737 IRVING St",94122,37.764033,-122.4659,"(37.764033, -122.4659)",14155745727,"64524_20160630","6/30/16",96,"64524_20160630_103150","Improper or defective plumbing","Low Risk"
7207,"GOLDEN PRODUCE","172 CHURCH St",94114,37.768187,-122.429024,"(37.768187, -122.429024)",14155431536,"7207_20170105","1/5/17",92,"7207_20170105_103150","Improper or defective plumbing","Low Risk"
1619,"BENDERS BAR & GRILL","800-806 SOUTH VAN NESS Ave",94110,37.76031,-122.417123,"(37.76031, -122.417123)",14155558050,"1619_20160628","6/28/16",94,"1619_20160628_103157","Food safety certificate or food handler card not available","Low Risk"
184,"RADIO HABANA","1109 VALENCIA St",94110,37.755124,-122.420916,"(37.755124, -122.420916)",14155827659,"184_20161003","10/3/16",98,"184_20161003_103149","Wiping cloths not clean or properly stored or inadequate sanitizer","Low Risk"
4907,"JIM GEORGIE'S DONUT","2799 16th St",94103,37.765262,-122.41523,"(37.765262, -122.41523)",14155867112,"4907_20170105","1/5/17",80,"4907_20170105_103143","Inadequate warewashing facilities or equipment","Low Risk"
2384,"TWO JACKS SEAFOOD","401 HAIGHT St",94117,37.772274,-122.428997,"(37.772274, -122.428997)",14155436290,"2384_20160323","3/23/16",91,"2384_20160323_103138","Improper storage use or identification of toxic substances","Low Risk"
5868,"LONGFELLOW ELEMENTARY SCHOOL","755 MORSE St",94112,37.710459,-122.447713,"(37.710459, -122.447713)",14155464730,"5868_20160908","9/8/16",90,"5868_20160908_103161","Low risk vermin infestation","Low Risk"
3838,"CAFE PICARO","3120 16th St",94103,37.764908,-122.422442,"(37.764908, -122.422442)",14155434089,"3838_20180222","2/22/18",72,"3838_20180222_103154","Unclean or degraded floors walls or ceilings","Low Risk"
26149,"Mrs. Fields Cookies","865 Market St 9000",94103,37.784317,-122.407563,"(37.784317, -122.407563)",14155971993,"26149_20180516","5/16/18",92,"26149_20180516_103143","Inadequate warewashing facilities or equipment","Low Risk"
1626,"LUPA TRATTORIA","4109 24th St",94114,37.751243,-122.434529,"(37.751243, -122.434529)",14155644664,"1626_20161003","10/3/16",92,"1626_20161003_103145","Improper storage of equipment utensils or linens","Low Risk"
4881,"STOP N SHOP","3000 Mission St",94110,37.748924,-122.418144,"(37.748924, -122.418144)",14155550905,"4881_20161021","10/21/16",90,"4881_20161021_103144","Unapproved or unmaintained equipment or utensils","Low Risk"
557,"KATIA'S","600 05th Ave",94118,37.77721,-122.462874,"(37.77721, -122.462874)",14155669292,"557_20160629","6/29/16",85,"557_20160629_103157","Food safety certificate or food handler card not available","Low Risk"
68773,"Nopalito","1224 9th Ave",94122,37.765412,-122.466375,"(37.765412, -122.466375)",14155430303,"68773_20180214","2/14/18",90,"68773_20180214_103154","Unclean or degraded floors walls or ceilings","Low Risk"
5010,"LATTE EXPRESS","48 05th St",94103,37.783225,-122.407252,"(37.783225, -122.407252)",14155287328,"5010_20160331","3/31/16",92,"5010_20160331_103161","Low risk vermin infestation","Low Risk"
4434,"NOE VALLEY BAKERY & BREAD CO.","4073 24th St",94114,37.751314,-122.433409,"(37.751314, -122.433409)",14155551405,"4434_20160608","6/8/16",96,"4434_20160608_103161","Low risk vermin infestation","Low Risk"
1734,"SAI JAI THAI","771 O'FARRELL St",94109,37.785182,-122.417409,"(37.785182, -122.417409)",14155675774,"1734_20160311","3/11/16",82,"1734_20160311_103144","Unapproved or unmaintained equipment or utensils","Low Risk"
61816,"Bullitt","2209 Polk St",94109,37.797114,-122.422034,"(37.797114, -122.422034)",14155995053,"61816_20170508","5/8/17",80,"61816_20170508_103138","Improper storage use or identification of toxic substances","Low Risk"
71356,"Padrecito","901 Cole St",94117,37.765644,-122.449974,"(37.765644, -122.449974)",14155502083,"71356_20170606","6/6/17",87,"71356_20170606_103142","Unclean nonfood contact surfaces","Low Risk"
7636,"LEE'S FOOD MARKET","1397 Revere Ave",94124,37.729455,-122.386364,"(37.729455, -122.386364)",14155822818,"7636_20151027","10/27/15",81,"7636_20151027_103139","Improper food storage","Low Risk"
4893,"S & W MARKET","399 HAIGHT St",94102,37.772323,-122.428627,"(37.772323, -122.428627)",14155862346,"4893_20171211","12/11/17",92,"4893_20171211_103152","Unclean unmaintained or improperly constructed toilet facilities","Low Risk"
741,"MOZZARELLA DI BUFALA PIZZERIA II","069 WEST PORTAL Ave",94127,37.740052,-122.466544,"(37.740052, -122.466544)",14155668900,"741_20180222","2/22/18",94,"741_20180222_103144","Unapproved or unmaintained equipment or utensils","Low Risk"
2759,"CASA MEXICANA","180 CHURCH",94114,37.768127,-122.429024,"(37.768127, -122.429024)",14155802771,"2759_20180516","5/16/18",84,"2759_20180516_103161","Low risk vermin infestation","Low Risk"
63897,"Bob's Donuts and Pastries","1621 Polk St",94109,37.791914,-122.420984,"(37.791914, -122.420984)",14155773141,"63897_20160406","4/6/16",96,"63897_20160406_103154","Unclean or degraded floors walls or ceilings","Low Risk"
36160,"Zabb","4440 Mission St",94112,37.726489,-122.433485,"(37.726489, -122.433485)",14155582455,"36160_20161208","12/8/16",94,"36160_20161208_103138","Improper storage use or identification of toxic substances","Low Risk"
5838,"HARVEY MILK ELEMENTARY SCHOOL","4235 19th St",94114,37.759173,-122.436488,"(37.759173, -122.436488)",14155246276,"5838_20160316","3/16/16",90,"5838_20160316_103144","Unapproved or unmaintained equipment or utensils","Low Risk"
5856,"Sanchez School","325 Sanchez St",94114,37.76395,-122.430767,"(37.76395, -122.430767)",14155246380,"5856_20180226","2/26/18",98,"5856_20180226_103154","Unclean or degraded floors walls or ceilings","Low Risk"
2357,"CHINA EXPRESS","2798 MISSION St",94110,37.752408,-122.418535,"(37.752408, -122.418535)",14155640881,"2357_20180723","7/23/18",81,"2357_20180723_103154","Unclean or degraded floors walls or ceilings","Low Risk"
7488,"EUROPA EXPRESS","746-750 LA PLAYA St",94121,37.774248,-122.510043,"(37.774248, -122.510043)",14155644917,"7488_20180209","2/9/18",94,"7488_20180209_103154","Unclean or degraded floors walls or ceilings","Low Risk"
71380,"Curry Up Now","659 Valencia St",94110,37.762265,-122.421586,"(37.762265, -122.421586)",14155827000,"71380_20180516","5/16/18",94,"71380_20180516_103142","Unclean nonfood contact surfaces","Low Risk"
2542,"PETER D'S RESTAURANT","2201 Van Ness St",94109,37.795993,-122.423585,"(37.795993, -122.423585)",14155778505,"2542_20171208","12/8/17",65,"2542_20171208_103138","Improper storage use or identification of toxic substances","Low Risk"
4881,"STOP N SHOP","3000 Mission St",94110,37.748924,-122.418144,"(37.748924, -122.418144)",14155550905,"4881_20161021","10/21/16",90,"4881_20161021_103157","Food safety certificate or food handler card not available","Low Risk"
5925,"ARCHBISHOP RIORDAN HIGH SCHOOL CAFE","175 PHELAN",94112,37.727337,-122.45245,"(37.727337, -122.45245)",14155588200,"5925_20180223","2/23/18",90,"5925_20180223_103161","Low risk vermin infestation","Low Risk"
59002,"Yummy Bakery & Restaurant","607 Jackson St",94133,37.796152,-122.405255,"(37.796152, -122.405255)",14155988388,"59002_20180515","5/15/18",92,"59002_20180515_103157","Food safety certificate or food handler card not available","Low Risk"
7095,"ABE'S MARKET","378 FILLMORE St",94117,37.772822,-122.430498,"(37.772822, -122.430498)",14155862576,"7095_20171211","12/11/17",92,"7095_20171211_103152","Unclean unmaintained or improperly constructed toilet facilities","Low Risk"
300,"SUBWAY","2001 VAN NESS Ave",94109,37.794134,-122.423234,"(37.794134, -122.423234)",14155779929,"300_20171208","12/8/17",86,"300_20171208_103156","Permit license or inspection report not posted","Low Risk"
19041,"Nama Sushi","227 King St",94107,37.777398,-122.392391,"(37.777398, -122.392391)",14155492007,"19041_20161110","11/10/16",85,"19041_20161110_103154","Unclean or degraded floors walls or ceilings","Low Risk"
4643,"CHEUNG HING CHINESE DELI & MEAT INC","323 Clement St",94118,37.782993,-122.462709,"(37.782993, -122.462709)",14155754259,"4643_20160512","5/12/16",67,"4643_20160512_103154","Unclean or degraded floors walls or ceilings","Low Risk"
2638,"SF BAGEL CO. (KATZ BAGELS)","3147 16th St",94103,37.764814,-122.423089,"(37.764814, -122.423089)",14155559050,"2638_20180830","8/30/18",86,"2638_20180830_103156","Permit license or inspection report not posted","Low Risk"
253,"Ann's Donut Coffee Shop","4488 Mission St",94112,37.725949,-122.433906,"(37.725949, -122.433906)",14155331761,"253_20161208","12/8/16",96,"253_20161208_103154","Unclean or degraded floors walls or ceilings","Low Risk"
4434,"NOE VALLEY BAKERY & BREAD CO.","4073 24th St",94114,37.751314,-122.433409,"(37.751314, -122.433409)",14155551405,"4434_20160608","6/8/16",96,"4434_20160608_103142","Unclean nonfood contact surfaces","Low Risk"
7636,"LEE'S FOOD MARKET","1397 Revere Ave",94124,37.729455,-122.386364,"(37.729455, -122.386364)",14155822818,"7636_20161019","10/19/16",81,"7636_20161019_103138","Improper storage use or identification of toxic substances","Low Risk"
32671,"La Taqueria Guadalajara","3146 24th St",94110,37.752512,-122.415109,"(37.752512, -122.415109)",14155644892,"32671_20160629","6/29/16",84,"32671_20160629_103142","Unclean nonfood contact surfaces","Low Risk"
1734,"SAI JAI THAI","771 O'FARRELL St",94109,37.785182,-122.417409,"(37.785182, -122.417409)",14155675774,"1734_20160311","3/11/16",82,"1734_20160311_103154","Unclean or degraded floors walls or ceilings","Low Risk"
68716,"The Sweet House","3512 BALBOA St",94121,37.775818,-122.496401,"(37.775818, -122.496401)",14155871388,"68716_20180226","2/26/18",80,"68716_20180226_103144","Unapproved or unmaintained equipment or utensils","Low Risk"
65086,"Bun Mee","2015 FILLMORE St",94115,37.788193,-122.433714,"(37.788193, -122.433714)",14155807696,"65086_20180905","9/5/18",88,"65086_20180905_103157","Food safety certificate or food handler card not available","Low Risk"
5813,"LICK MIDDLE SCHOOL","1220 Noe St",94114,37.74949,-122.43175,"(37.74949, -122.43175)",14155816139,"5813_20180226","2/26/18",94,"5813_20180226_103144","Unapproved or unmaintained equipment or utensils","Low Risk"
32671,"La Taqueria Guadalajara","3146 24th St",94110,37.752512,-122.415109,"(37.752512, -122.415109)",14155644892,"32671_20160629","6/29/16",84,"32671_20160629_103144","Unapproved or unmaintained equipment or utensils","Low Risk"
71909,"Shanghai Dumpling King 2","696 Monterey Blvd",94127,37.731568,-122.45097,"(37.731568, -122.45097)",14155232380,"71909_20171213","12/13/17",92,"71909_20171213_103144","Unapproved or unmaintained equipment or utensils","Low Risk"
5908,"SHERMAN ELEMENTARY SCHOOL","1651 UNION St",94123,37.798243,-122.426167,"(37.798243, -122.426167)",14155743530,"5908_20160325","3/25/16",96,"5908_20160325_103157","Food safety certificate or food handler card not available","Low Risk"
27377,"Sorabol","845 Market St FC-3",94103,37.784848,-122.406892,"(37.784848, -122.406892)",14155775959,"27377_20180514","5/14/18",87,"27377_20180514_103154","Unclean or degraded floors walls or ceilings","Low Risk"
1381,"PEBBLE'S CAFE","2852 Diamond St",94131,37.73382,-122.434093,"(37.73382, -122.434093)",14155332270,"1381_20180719","7/19/18",96,"1381_20180719_103154","Unclean or degraded floors walls or ceilings","Low Risk"
32671,"La Taqueria Guadalajara","3146 24th St",94110,37.752512,-122.415109,"(37.752512, -122.415109)",14155644892,"32671_20180508","5/8/18",75,"32671_20180508_103142","Unclean nonfood contact surfaces","Low Risk"
69769,"Whole Foods Market","1150 Ocean Ave",94112,37.723652,-122.45461,"(37.723652, -122.45461)",14155337400,"69769_20180725","7/25/18",90,"69769_20180725_103149","Wiping cloths not clean or properly stored or inadequate sanitizer","Low Risk"
403,"HAAGEN-DAZS #561","865 MARKET St",94103,37.784317,-122.407563,"(37.784317, -122.407563)",14155891550,"403_20160701","7/1/16",81,"403_20160701_103157","Food safety certificate or food handler card not available","Low Risk"
323,"WAYO","1407 VAN NESS Ave",94109,37.788609,-122.42213,"(37.788609, -122.42213)",14155478369,"323_20161108","11/8/16",94,"323_20161108_103149","Wiping cloths not clean or properly stored or inadequate sanitizer","Low Risk"
1249,"KABABAYAN FAST FOOD","2706 MISSION St",94110,37.753691,-122.418657,"(37.753691, -122.418657)",14155929635,"1249_20180515","5/15/18",74,"1249_20180515_103144","Unapproved or unmaintained equipment or utensils","Low Risk"
5843,"HOOVER MIDDLE SCHOOL","2290 14th Ave",94116,37.745374,-122.470308,"(37.745374, -122.470308)",14155752783,"5843_20160412","4/12/16",86,"5843_20160412_103144","Unapproved or unmaintained equipment or utensils","Low Risk"
2542,"PETER D'S RESTAURANT","2201 Van Ness St",94109,37.795993,-122.423585,"(37.795993, -122.423585)",14155778505,"2542_20171208","12/8/17",65,"2542_20171208_103156","Permit license or inspection report not posted","Low Risk"
4893,"S & W MARKET","399 HAIGHT St",94102,37.772323,-122.428627,"(37.772323, -122.428627)",14155862346,"4893_20171211","12/11/17",92,"4893_20171211_103144","Unapproved or unmaintained equipment or utensils","Low Risk"
3630,"MAD DOG IN THE FOG","530 HAIGHT St",94117,37.772097,-122.430814,"(37.772097, -122.430814)",14155627279,"3630_20160630","6/30/16",90,"3630_20160630_103158","Unpermitted food facility","Low Risk"
2638,"SF BAGEL CO. (KATZ BAGELS)","3147 16th St",94103,37.764814,-122.423089,"(37.764814, -122.423089)",14155559050,"2638_20180830","8/30/18",86,"2638_20180830_103157","Food safety certificate or food handler card not available","Low Risk"
2061,"ATAMI SUSHI BAR & GRILL","1662 LOMBARD St",94123,37.800788,-122.428894,"(37.800788, -122.428894)",14155611958,"2061_20180223","2/23/18",94,"2061_20180223_103149","Wiping cloths not clean or properly stored or inadequate sanitizer","Low Risk"
59002,"Yummy Bakery & Restaurant","607 Jackson St",94133,37.796152,-122.405255,"(37.796152, -122.405255)",14155988388,"59002_20180515","5/15/18",92,"59002_20180515_103161","Low risk vermin infestation","Low Risk"
2315,"TAQUERIA CAN-CUN","2288 MISSION St",94110,37.760487,-122.419285,"(37.760487, -122.419285)",14155259560,"2315_20160418","4/18/16",83,"2315_20160418_103149","Wiping cloths not clean or properly stored or inadequate sanitizer","Low Risk"
71532,"Xpresso Tea","6901 Geary Blvd",94121,37.779663,-122.493618,"(37.779663, -122.493618)",14155277367,"71532_20160330","3/30/16",96,"71532_20160330_103139","Improper food storage","Low Risk"
3267,"The Olive Garden Italian","3251 20th Ave",94132,37.728497,-122.475639,"(37.728497, -122.475639)",14155666770,"3267_20180510","5/10/18",83,"3267_20180510_103154","Unclean or degraded floors walls or ceilings","Low Risk"
300,"SUBWAY","2001 VAN NESS Ave",94109,37.794134,-122.423234,"(37.794134, -122.423234)",14155779929,"300_20171208","12/8/17",86,"300_20171208_103144","Unapproved or unmaintained equipment or utensils","Low Risk"
71909,"Shanghai Dumpling King 2","696 Monterey Blvd",94127,37.731568,-122.45097,"(37.731568, -122.45097)",14155232380,"71909_20171213","12/13/17",92,"71909_20171213_103151","Inadequate or unsanitary refuse containers or area or no garbage service","Low Risk"
2542,"PETER D'S RESTAURANT","2201 Van Ness St",94109,37.795993,-122.423585,"(37.795993, -122.423585)",14155778505,"2542_20171208","12/8/17",65,"2542_20171208_103143","Inadequate warewashing facilities or equipment","Low Risk"
70685,"5 Degree Tea House","2527 SAN BRUNO Ave",94134,37.729753,-122.40447,"(37.729753, -122.40447)",14155828233,"70685_20171212","12/12/17",86,"70685_20171212_103154","Unclean or degraded floors walls or ceilings","Low Risk"
26149,"Mrs. Fields Cookies","865 Market St 9000",94103,37.784317,-122.407563,"(37.784317, -122.407563)",14155971993,"26149_20180516","5/16/18",92,"26149_20180516_103154","Unclean or degraded floors walls or ceilings","Low Risk"
3678,"ROUND TABLE PIZZA","737 PORTOLA Dr",94127,37.744168,-122.453479,"(37.744168, -122.453479)",14155689595,"3678_20180725","7/25/18",96,"3678_20180725_103144","Unapproved or unmaintained equipment or utensils","Low Risk"
3095,"Whitcomb Hotel Bar & Grill","1231 MARKET St",94103,37.778357,-122.415182,"(37.778357, -122.415182)",14155628000,"3095_20160630","6/30/16",85,"3095_20160630_103144","Unapproved or unmaintained equipment or utensils","Low Risk"
645,"TAN-TAN","1825 POST St #223",94115,37.785274,-122.431918,"(37.785274, -122.431918)",14155346260,"645_20180829","8/29/18",94,"645_20180829_103144","Unapproved or unmaintained equipment or utensils","Low Risk"
903,"Sabra Restaurant","419 Grant Ave",94108,37.790874,-122.405634,"(37.790874, -122.405634)",14155983656,"903_20160630","6/30/16",90,"903_20160630_103154","Unclean or degraded floors walls or ceilings","Low Risk"
5925,"ARCHBISHOP RIORDAN HIGH SCHOOL CAFE","175 PHELAN",94112,37.727337,-122.45245,"(37.727337, -122.45245)",14155588200,"5925_20180223","2/23/18",90,"5925_20180223_103154","Unclean or degraded floors walls or ceilings","Low Risk"
5905,"MARINA MIDDLE SCHOOL","3500 FILLMORE St",94123,37.801776,-122.43641,"(37.801776, -122.43641)",14155743495,"5905_20160325","3/25/16",92,"5905_20160325_103144","Unapproved or unmaintained equipment or utensils","Low Risk"
36160,"Zabb","4440 Mission St",94112,37.726489,-122.433485,"(37.726489, -122.433485)",14155582455,"36160_20161208","12/8/16",94,"36160_20161208_103147","Inadequate ventilation or lighting","Low Risk"
1950,"BULLSHEAD RESTAURANT","840 ULLOA St",94127,37.740785,-122.465507,"(37.740785, -122.465507)",14155664350,"1950_20170126","1/26/17",89,"1950_20170126_103154","Unclean or degraded floors walls or ceilings","Low Risk"
5950,"LICK-WILMERDING HIGH SCHOOL","755 OCEAN Ave",94112,37.722933,-122.448971,"(37.722933, -122.448971)",14155334021,"5950_20160419","4/19/16",86,"5950_20160419_103157","Food safety certificate or food handler card not available","Low Risk"
3895,"Cable Car Restaurant","1040 Columbus Ave",94133,37.803984,-122.415453,"(37.803984, -122.415453)",14155744455,"3895_20160217","2/17/16",78,"3895_20160217_103144","Unapproved or unmaintained equipment or utensils","Low Risk"
59002,"Yummy Bakery & Restaurant","607 Jackson St",94133,37.796152,-122.405255,"(37.796152, -122.405255)",14155988388,"59002_20160524","5/24/16",94,"59002_20160524_103154","Unclean or degraded floors walls or ceilings","Low Risk"
26149,"Mrs. Fields Cookies","865 Market St 9000",94103,37.784317,-122.407563,"(37.784317, -122.407563)",14155971993,"26149_20160701","7/1/16",80,"26149_20160701_103144","Unapproved or unmaintained equipment or utensils","Low Risk"
3267,"The Olive Garden Italian","3251 20th Ave",94132,37.728497,-122.475639,"(37.728497, -122.475639)",14155666770,"3267_20180510","5/10/18",83,"3267_20180510_103144","Unapproved or unmaintained equipment or utensils","Low Risk"
32671,"La Taqueria Guadalajara","3146 24th St",94110,37.752512,-122.415109,"(37.752512, -122.415109)",14155644892,"32671_20160629","6/29/16",84,"32671_20160629_103157","Food safety certificate or food handler card not available","Low Risk"
5905,"MARINA MIDDLE SCHOOL","3500 FILLMORE St",94123,37.801776,-122.43641,"(37.801776, -122.43641)",14155743495,"5905_20160325","3/25/16",92,"5905_20160325_103138","Improper storage use or identification of toxic substances","Low Risk"
19041,"Nama Sushi","227 King St",94107,37.777398,-122.392391,"(37.777398, -122.392391)",14155492007,"19041_20161110","11/10/16",85,"19041_20161110_103145","Improper storage of equipment utensils or linens","Low Risk"
36208,"Silver Cafe","4300 MISSION St",94112,37.728582,-122.431482,"(37.728582, -122.431482)",14155583237,"36208_20160513","5/13/16",84,"36208_20160513_103154","Unclean or degraded floors walls or ceilings","Low Risk"
7747,"SAFEWAY STORE #964","4950 Mission St",94112,37.71954,-122.438775,"(37.71954, -122.438775)",14155587200,"7747_20160609","6/9/16",81,"7747_20160609_103144","Unapproved or unmaintained equipment or utensils","Low Risk"
774,"BAY VIEW BOAT CLUB","429 Terry Francois St",94107,37.772667,-122.387032,"(37.772667, -122.387032)",14155567650,"774_20180913","9/13/18",96,"774_20180913_103154","Unclean or degraded floors walls or ceilings","Low Risk"
70452,"Kennedy Market & Deli","4600 03rd St",94124,37.736301,-122.390293,"(37.736301, -122.390293)",14155285560,"70452_20180913","9/13/18",90,"70452_20180913_103142","Unclean nonfood contact surfaces","Low Risk"
2759,"CASA MEXICANA","180 CHURCH",94114,37.768127,-122.429024,"(37.768127, -122.429024)",14155802771,"2759_20180516","5/16/18",84,"2759_20180516_103149","Wiping cloths not clean or properly stored or inadequate sanitizer","Low Risk"
5925,"ARCHBISHOP RIORDAN HIGH SCHOOL CAFE","175 PHELAN",94112,37.727337,-122.45245,"(37.727337, -122.45245)",14155588200,"5925_20180223","2/23/18",90,"5925_20180223_103149","Wiping cloths not clean or properly stored or inadequate sanitizer","Low Risk"
65057,"The Brixton","2140 UNION St",94123,37.797238,-122.434533,"(37.797238, -122.434533)",14155401114,"65057_20171221","12/21/17",92,"65057_20171221_103142","Unclean nonfood contact surfaces","Low Risk"
63047,"Roam Artisan Burgers","1785 UNION St",94123,37.797954,-122.428477,"(37.797954, -122.428477)",14155414247,"63047_20171219","12/19/17",92,"63047_20171219_103147","Inadequate ventilation or lighting","Low Risk"
32671,"La Taqueria Guadalajara","3146 24th St",94110,37.752512,-122.415109,"(37.752512, -122.415109)",14155644892,"32671_20160629","6/29/16",84,"32671_20160629_103147","Inadequate ventilation or lighting","Low Risk"
1262,"NORTH BEACH PIZZA","800 STANYAN St",94117,37.767286,-122.453075,"(37.767286, -122.453075)",14155752300,"1262_20171215","12/15/17",90,"1262_20171215_103144","Unapproved or unmaintained equipment or utensils","Low Risk"
7764,"YASUKOCHI'S SWEET SHOP","1790 SUTTER St",94115,37.78659,-122.429815,"(37.78659, -122.429815)",14155938165,"7764_20160603","6/3/16",96,"7764_20160603_103138","Improper storage use or identification of toxic substances","Low Risk"
1734,"SAI JAI THAI","771 O'FARRELL St",94109,37.785182,-122.417409,"(37.785182, -122.417409)",14155675774,"1734_20160311","3/11/16",82,"1734_20160311_103143","Inadequate warewashing facilities or equipment","Low Risk"
1734,"SAI JAI THAI","771 O'FARRELL St",94109,37.785182,-122.417409,"(37.785182, -122.417409)",14155675774,"1734_20160311","3/11/16",82,"1734_20160311_103149","Wiping cloths not clean or properly stored or inadequate sanitizer","Low Risk"
70494,"The Little Chihuahua Mexican Restaurant","581 VALENCIA St",94110,37.763664,-122.421736,"(37.763664, -122.421736)",14155207111,"70494_20160216","2/16/16",92,"70494_20160216_103150","Improper or defective plumbing","Low Risk"
63493,"The Golden West","8 Trinity Pl",94104,37.790053,-122.402586,"(37.790053, -122.402586)",14155270896,"63493_20151222","12/22/15",83,"63493_20151222_103144","Unapproved or unmaintained equipment or utensils","Low Risk"
3678,"ROUND TABLE PIZZA","737 PORTOLA Dr",94127,37.744168,-122.453479,"(37.744168, -122.453479)",14155689595,"3678_20180725","7/25/18",96,"3678_20180725_103154","Unclean or degraded floors walls or ceilings","Low Risk"
10886,"Taste of Formosa","2428 CLEMENT ST",94121,37.782018,-122.485421,"(37.782018, -122.485421)",14155666368,"10886_20180906","9/6/18",88,"10886_20180906_103147","Inadequate ventilation or lighting","Low Risk"
1778,"Academy Bar & Kitchen","1800 Fillmore St",94115,37.786498,-122.430283,"(37.786498, -122.430283)",14155771800,"1778_20160906","9/6/16",94,"1778_20160906_103149","Wiping cloths not clean or properly stored or inadequate sanitizer","Low Risk"
61816,"Bullitt","2209 Polk St",94109,37.797114,-122.422034,"(37.797114, -122.422034)",14155995053,"61816_20170508","5/8/17",80,"61816_20170508_103148","No thermometers or uncalibrated thermometers","Low Risk"
7575,"SUPER MIRA","1790 SUTTER St",94115,37.786568,-122.429754,"(37.786568, -122.429754)",14155926529,"7575_20160603","6/3/16",90,"7575_20160603_103144","Unapproved or unmaintained equipment or utensils","Low Risk"
36208,"Silver Cafe","4300 MISSION St",94112,37.728582,-122.431482,"(37.728582, -122.431482)",14155583237,"36208_20160513","5/13/16",84,"36208_20160513_103138","Improper storage use or identification of toxic substances","Low Risk"
4685,"NORMAN'S LIQUOR & DELI","733 Randolph St",94132,37.714204,-122.469193,"(37.714204, -122.469193)",14155580088,"4685_20160329","3/29/16",94,"4685_20160329_103144","Unapproved or unmaintained equipment or utensils","Low Risk"
4685,"NORMAN'S LIQUOR & DELI","733 Randolph St",94132,37.714204,-122.469193,"(37.714204, -122.469193)",14155580088,"4685_20160329","3/29/16",94,"4685_20160329_103154","Unclean or degraded floors walls or ceilings","Low Risk"
5950,"LICK-WILMERDING HIGH SCHOOL","755 OCEAN Ave",94112,37.722933,-122.448971,"(37.722933, -122.448971)",14155334021,"5950_20160419","4/19/16",86,"5950_20160419_103149","Wiping cloths not clean or properly stored or inadequate sanitizer","Low Risk"
7747,"SAFEWAY STORE #964","4950 Mission St",94112,37.71954,-122.438775,"(37.71954, -122.438775)",14155587200,"7747_20160609","6/9/16",81,"7747_20160609_103149","Wiping cloths not clean or properly stored or inadequate sanitizer","Low Risk"
7087,"VALENCIA FARMER'S MARKET","1299 VALENCIA St",94110,37.752162,-122.420585,"(37.752162, -122.420585)",14155286863,"7087_20160701","7/1/16",92,"7087_20160701_103139","Improper food storage","Low Risk"
7747,"SAFEWAY STORE #964","4950 Mission St",94112,37.71954,-122.438775,"(37.71954, -122.438775)",14155587200,"7747_20160609","6/9/16",81,"7747_20160609_103152","Unclean unmaintained or improperly constructed toilet facilities","Low Risk"
18800,"7-Mission Restaurant","150 07th St",94103,37.778547,-122.41013,"(37.778547, -122.41013)",14155863298,"18800_20160309","3/9/16",86,"18800_20160309_103138","Improper storage use or identification of toxic substances","Low Risk"
65824,"Sugarhill Kitchen","1449 LOMBARD St",94123,37.801173,-122.425467,"(37.801173, -122.425467)",14155292368,"65824_20180517","5/17/18",91,"65824_20180517_103152","Unclean unmaintained or improperly constructed toilet facilities","Low Risk"
2132,"B & M MEI SING RESTAURANT","62 02nd St",94105,37.788453,-122.400466,"(37.788453, -122.400466)",14155772888,"2132_20170928","9/28/17",85,"2132_20170928_103154","Unclean or degraded floors walls or ceilings","Low Risk"
69769,"Whole Foods Market","1150 Ocean Ave",94112,37.723652,-122.45461,"(37.723652, -122.45461)",14155337400,"69769_20160628","6/28/16",90,"69769_20160628_103161","Low risk vermin infestation","Low Risk"
2893,"FOREIGN CINEMA","2534 MISSION St",94110,37.756417,-122.418884,"(37.756417, -122.418884)",14155417600,"2893_20180523","5/23/18",88,"2893_20180523_103161","Low risk vermin infestation","Low Risk"
903,"Sabra Restaurant","419 Grant Ave",94108,37.790874,-122.405634,"(37.790874, -122.405634)",14155983656,"903_20160630","6/30/16",90,"903_20160630_103144","Unapproved or unmaintained equipment or utensils","Low Risk"
1081,"ARINELL PIZZA","509 VALENCIA St",94110,37.764744,-122.421803,"(37.764744, -122.421803)",14155251303,"1081_20180523","5/23/18",94,"1081_20180523_103157","Food safety certificate or food handler card not available","Low Risk"
69172,"Victoria Pastry Co.","700 Filbert St",94133,37.8012,-122.411191,"(37.8012, -122.411191)",14155981655,"69172_20170103","1/3/17",96,"69172_20170103_103144","Unapproved or unmaintained equipment or utensils","Low Risk"
19373,"Las Isletas","4508 03rd St",94124,37.737021,-122.390043,"(37.737021, -122.390043)",14155577698,"19373_20151013","10/13/15",87,"19373_20151013_103145","Improper storage of equipment utensils or linens","Low Risk"
774,"BAY VIEW BOAT CLUB","429 Terry Francois St",94107,37.772667,-122.387032,"(37.772667, -122.387032)",14155567650,"774_20180913","9/13/18",96,"774_20180913_103161","Low risk vermin infestation","Low Risk"
2132,"B & M MEI SING RESTAURANT","62 02nd St",94105,37.788453,-122.400466,"(37.788453, -122.400466)",14155772888,"2132_20170928","9/28/17",85,"2132_20170928_103142","Unclean nonfood contact surfaces","Low Risk"
251,"BEANERY INC.","602 Irving St",94122,37.764148,-122.464391,"(37.764148, -122.464391)",14155661090,"251_20180306","3/6/18",98,"251_20180306_103154","Unclean or degraded floors walls or ceilings","Low Risk"
64379,"Piccadilly Fish & Chips","1348 Polk St",94109,37.789299,-122.420352,"(37.789299, -122.420352)",14155776477,"64379_20180307","3/7/18",96,"64379_20180307_103142","Unclean nonfood contact surfaces","Low Risk"
7747,"SAFEWAY STORE #964","4950 Mission St",94112,37.71954,-122.438775,"(37.71954, -122.438775)",14155587200,"7747_20160609","6/9/16",81,"7747_20160609_103154","Unclean or degraded floors walls or ceilings","Low Risk"
63413,"Mymy","1500 California St",94109,37.790798,-122.419214,"(37.790798, -122.419214)",14155807466,"63413_20160701","7/1/16",87,"63413_20160701_103157","Food safety certificate or food handler card not available","Low Risk"
68511,"Gioia Pizzeria","2238 Polk St",94109,37.797424,-122.421991,"(37.797424, -122.421991)",14150227844,"68511_20161021","10/21/16",98,"68511_20161021_103153","Inadequate dressing rooms or improper storage of personal items","Low Risk"
3260,"KENTUCKY FRIED CHICKEN","2040 OCEAN Ave",94127,37.726337,-122.465031,"(37.726337, -122.465031)",14155580566,"3260_20160930","9/30/16",96,"3260_20160930_103144","Unapproved or unmaintained equipment or utensils","Low Risk"
64379,"Piccadilly Fish & Chips","1348 Polk St",94109,37.789299,-122.420352,"(37.789299, -122.420352)",14155776477,"64379_20180911","9/11/18",92,"64379_20180911_103139","Improper food storage","Low Risk"
1154,"SUNFLOWER RESTAURANT","506 Valencia St",94103,37.764678,-122.421905,"(37.764678, -122.421905)",14155625023,"1154_20160912","9/12/16",76,"1154_20160912_103153","Inadequate dressing rooms or improper storage of personal items","Low Risk"
59872,"KAMEKYO","943 COLE St",94117,37.765164,-122.449874,"(37.765164, -122.449874)",14155758428,"59872_20171214","12/14/17",89,"59872_20171214_103147","Inadequate ventilation or lighting","Low Risk"
32671,"La Taqueria Guadalajara","3146 24th St",94110,37.752512,-122.415109,"(37.752512, -122.415109)",14155644892,"32671_20160629","6/29/16",84,"32671_20160629_103154","Unclean or degraded floors walls or ceilings","Low Risk"
69769,"Whole Foods Market","1150 Ocean Ave",94112,37.723652,-122.45461,"(37.723652, -122.45461)",14155337400,"69769_20160628","6/28/16",90,"69769_20160628_103144","Unapproved or unmaintained equipment or utensils","Low Risk"
6030,"Woolf House Senior Center","801 Howard St . #413",94103,37.783037,-122.402952,"(37.783037, -122.402952)",14155677603,"6030_20160701","7/1/16",94,"6030_20160701_103157","Food safety certificate or food handler card not available","Low Risk"
5817,"LAKESHORE ELEMENTARY SCHOOL","220 MIDDLEFIELD Dr",94132,37.730637,-122.4861,"(37.730637, -122.4861)",14155752825,"5817_20171003","10/3/17",94,"5817_20171003_103149","Wiping cloths not clean or properly stored or inadequate sanitizer","Low Risk"
61816,"Bullitt","2209 Polk St",94109,37.797114,-122.422034,"(37.797114, -122.422034)",14155995053,"61816_20170508","5/8/17",80,"61816_20170508_103149","Wiping cloths not clean or properly stored or inadequate sanitizer","Low Risk"
5950,"LICK-WILMERDING HIGH SCHOOL","755 OCEAN Ave",94112,37.722933,-122.448971,"(37.722933, -122.448971)",14155334021,"5950_20160419","4/19/16",86,"5950_20160419_103138","Improper storage use or identification of toxic substances","Low Risk"
253,"Ann's Donut Coffee Shop","4488 Mission St",94112,37.725949,-122.433906,"(37.725949, -122.433906)",14155331761,"253_20161208","12/8/16",96,"253_20161208_103150","Improper or defective plumbing","Low Risk"
5820,"GLEN PARK ELEMENTARY SCHOOL","151 LIPPARD Ave",94122,37.73322,-122.435998,"(37.73322, -122.435998)",14155464713,"5820_20180305","3/5/18",96,"5820_20180305_103148","No thermometers or uncalibrated thermometers","Low Risk"
64379,"Piccadilly Fish & Chips","1348 Polk St",94109,37.789299,-122.420352,"(37.789299, -122.420352)",14155776477,"64379_20180307","3/7/18",96,"64379_20180307_103154","Unclean or degraded floors walls or ceilings","Low Risk"
3343,"PERRYS","1944 UNION St",94123,37.797648,-122.431274,"(37.797648, -122.431274)",14155929022,"3343_20160907","9/7/16",96,"3343_20160907_103144","Unapproved or unmaintained equipment or utensils","Low Risk"
35882,"Peet's Coffee and Tea","555 09th St Ste B5",94103,37.774722,-122.406761,"(37.774722, -122.406761)",14155693115,"35882_20180518","5/18/18",96,"35882_20180518_103149","Wiping cloths not clean or properly stored or inadequate sanitizer","Low Risk"
320,"NAPOLI PIZZA RESTAURANT","1045 POLK St",94109,37.786545,-122.419894,"(37.786545, -122.419894)",14155882222,"320_20180522","5/22/18",81,"320_20180522_103154","Unclean or degraded floors walls or ceilings","Low Risk"
32671,"La Taqueria Guadalajara","3146 24th St",94110,37.752512,-122.415109,"(37.752512, -122.415109)",14155644892,"32671_20160629","6/29/16",84,"32671_20160629_103156","Permit license or inspection report not posted","Low Risk"
2315,"TAQUERIA CAN-CUN","2288 MISSION St",94110,37.760487,-122.419285,"(37.760487, -122.419285)",14155259560,"2315_20161207","12/7/16",88,"2315_20161207_103144","Unapproved or unmaintained equipment or utensils","Low Risk"
5156,"McDONALD'S","302 POTRERO Ave",94110,37.765507,-122.407565,"(37.765507, -122.407565)",14155863295,"5156_20161024","10/24/16",84,"5156_20161024_103154","Unclean or degraded floors walls or ceilings","Low Risk"
64379,"Piccadilly Fish & Chips","1348 Polk St",94109,37.789299,-122.420352,"(37.789299, -122.420352)",14155776477,"64379_20151222","12/22/15",94,"64379_20151222_103144","Unapproved or unmaintained equipment or utensils","Low Risk"
62445,"Bistro 10 UN","10 United Nations Plaza, 6th Floor  6th Floor",94102,37.780435,-122.413496,"(37.780435, -122.413496)",14155274001,"62445_20180724","7/24/18",98,"62445_20180724_103158","Unpermitted food facility","Low Risk"
5786,"UNION STREET INN","2229 UNION St",94123,37.796977,-122.435968,"(37.796977, -122.435968)",14155340424,"5786_20171003","10/3/17",94,"5786_20171003_103161","Low risk vermin infestation","Low Risk"
403,"HAAGEN-DAZS #561","865 MARKET St",94103,37.784317,-122.407563,"(37.784317, -122.407563)",14155891550,"403_20160701","7/1/16",81,"403_20160701_103154","Unclean or degraded floors walls or ceilings","Low Risk"
35882,"Peet's Coffee and Tea","555 09th St Ste B5",94103,37.774722,-122.406761,"(37.774722, -122.406761)",14155693115,"35882_20180518","5/18/18",96,"35882_20180518_103154","Unclean or degraded floors walls or ceilings","Low Risk"
3477,"CHOW","215 Church St",94114,37.767183,-122.428866,"(37.767183, -122.428866)",14155552469,"3477_20180522","5/22/18",96,"3477_20180522_103145","Improper storage of equipment utensils or linens","Low Risk"
71286,"21 Taste House","1109 Ocean Ave",94112,37.723461,-122.454226,"(37.723461, -122.454226)",14155932233,"71286_20180302","3/2/18",90,"71286_20180302_103144","Unapproved or unmaintained equipment or utensils","Low Risk"
1381,"PEBBLE'S CAFE","2852 Diamond St",94131,37.73382,-122.434093,"(37.73382, -122.434093)",14155332270,"1381_20160330","3/30/16",73,"1381_20160330_103144","Unapproved or unmaintained equipment or utensils","Low Risk"
5950,"LICK-WILMERDING HIGH SCHOOL","755 OCEAN Ave",94112,37.722933,-122.448971,"(37.722933, -122.448971)",14155334021,"5950_20160419","4/19/16",86,"5950_20160419_103154","Unclean or degraded floors walls or ceilings","Low Risk"
5838,"HARVEY MILK ELEMENTARY SCHOOL","4235 19th St",94114,37.759173,-122.436488,"(37.759173, -122.436488)",14155246276,"5838_20170929","9/29/17",98,"5838_20170929_103149","Wiping cloths not clean or properly stored or inadequate sanitizer","Low Risk"
69769,"Whole Foods Market","1150 Ocean Ave",94112,37.723652,-122.45461,"(37.723652, -122.45461)",14155337400,"69769_20160628","6/28/16",90,"69769_20160628_103154","Unclean or degraded floors walls or ceilings","Low Risk"
3825,"COVE CAFE","434 CASTRO St",94114,37.761918,-122.435135,"(37.761918, -122.435135)",14155620462,"3825_20180724","7/24/18",90,"3825_20180724_103154","Unclean or degraded floors walls or ceilings","Low Risk"
619,"A-1 BAKERY","1727 OCEAN Ave",94112,37.724824,-122.460726,"(37.724824, -122.460726)",14155586923,"619_20170929","9/29/17",90,"619_20170929_103149","Wiping cloths not clean or properly stored or inadequate sanitizer","Low Risk"
63047,"Roam Artisan Burgers","1785 UNION St",94123,37.797954,-122.428477,"(37.797954, -122.428477)",14155414247,"63047_20171219","12/19/17",92,"63047_20171219_103161","Low risk vermin infestation","Low Risk"
10886,"Taste of Formosa","2428 CLEMENT ST",94121,37.782018,-122.485421,"(37.782018, -122.485421)",14155666368,"10886_20180906","9/6/18",88,"10886_20180906_103177","Non service animal","Low Risk"
5952,"IMMACULATE CONCPTION ACADEMY","3625 24th St",94110,37.751923,-122.423558,"(37.751923, -122.423558)",14155822052,"5952_20160418","4/18/16",94,"5952_20160418_103157","Food safety certificate or food handler card not available","Low Risk"
70516,"Shabu House","2608 Ocean Ave",94132,37.731746,-122.473318,"(37.731746, -122.473318)",14155588800,"70516_20180227","2/27/18",94,"70516_20180227_103144","Unapproved or unmaintained equipment or utensils","Low Risk"
305,"PACIFIC CATCH","2027 CHESTNUT St",94123,37.800763,-122.436536,"(37.800763, -122.436536)",14155441950,"305_20160518","5/18/16",87,"305_20160518_103150","Improper or defective plumbing","Low Risk"
59574,"Pan Lido Salvadoreno","3147 22nd St",94110,37.755479,-122.417583,"(37.755479, -122.417583)",14155283350,"59574_20160909","9/9/16",98,"59574_20160909_103149","Wiping cloths not clean or properly stored or inadequate sanitizer","Low Risk"
1075,"SANDWICH PLACE, THE","2029 MISSION St",94110,37.764384,-122.419566,"(37.764384, -122.419566)",14155433811,"1075_20160309","3/9/16",90,"1075_20160309_103144","Unapproved or unmaintained equipment or utensils","Low Risk"
4789,"WHITCOMB  HOTEL- EMPLOYEES / BSMT CAFETERIA","1231 MARKET St",94103,37.778357,-122.415182,"(37.778357, -122.415182)",14155628000,"4789_20160630","6/30/16",88,"4789_20160630_103154","Unclean or degraded floors walls or ceilings","Low Risk"
2620,"Bambino's Ristorante","945 Cole St",94117,37.765174,-122.449884,"(37.765174, -122.449884)",14155731343,"2620_20171214","12/14/17",96,"2620_20171214_103136","Unsanitary employee garments hair or nails","Low Risk"
2406,"THEP-PHANON RESTAURANT","400 WALLER St",94117,37.77124,-122.430299,"(37.77124, -122.430299)",14155432526,"2406_20180301","3/1/18",85,"2406_20180301_103154","Unclean or degraded floors walls or ceilings","Low Risk"
71286,"21 Taste House","1109 Ocean Ave",94112,37.723461,-122.454226,"(37.723461, -122.454226)",14155932233,"71286_20180302","3/2/18",90,"71286_20180302_103149","Wiping cloths not clean or properly stored or inadequate sanitizer","Low Risk"
69172,"Victoria Pastry Co.","700 Filbert St",94133,37.8012,-122.411191,"(37.8012, -122.411191)",14155981655,"69172_20170103","1/3/17",96,"69172_20170103_103161","Low risk vermin infestation","Low Risk"
4789,"WHITCOMB  HOTEL- EMPLOYEES / BSMT CAFETERIA","1231 MARKET St",94103,37.778357,-122.415182,"(37.778357, -122.415182)",14155628000,"4789_20160630","6/30/16",88,"4789_20160630_103142","Unclean nonfood contact surfaces","Low Risk"
7764,"YASUKOCHI'S SWEET SHOP","1790 SUTTER St",94115,37.78659,-122.429815,"(37.78659, -122.429815)",14155938165,"7764_20160603","6/3/16",96,"7764_20160603_103154","Unclean or degraded floors walls or ceilings","Low Risk"
2743,"NOAH'S NEW YORK BAGELS #2147","2300 16 th St",94103,37.765708,-122.409002,"(37.765708, -122.409002)",14155862802,"2743_20161024","10/24/16",84,"2743_20161024_103154","Unclean or degraded floors walls or ceilings","Low Risk"
63047,"Roam Artisan Burgers","1785 UNION St",94123,37.797954,-122.428477,"(37.797954, -122.428477)",14155414247,"63047_20171219","12/19/17",92,"63047_20171219_103144","Unapproved or unmaintained equipment or utensils","Low Risk"
403,"HAAGEN-DAZS #561","865 MARKET St",94103,37.784317,-122.407563,"(37.784317, -122.407563)",14155891550,"403_20160701","7/1/16",81,"403_20160701_103144","Unapproved or unmaintained equipment or utensils","Low Risk"
63413,"Mymy","1500 California St",94109,37.790798,-122.419214,"(37.790798, -122.419214)",14155807466,"63413_20180522","5/22/18",90,"63413_20180522_103154","Unclean or degraded floors walls or ceilings","Low Risk"
403,"HAAGEN-DAZS #561","865 MARKET St",94103,37.784317,-122.407563,"(37.784317, -122.407563)",14155891550,"403_20160701","7/1/16",81,"403_20160701_103139","Improper food storage","Low Risk"
5950,"LICK-WILMERDING HIGH SCHOOL","755 OCEAN Ave",94112,37.722933,-122.448971,"(37.722933, -122.448971)",14155334021,"5950_20160419","4/19/16",86,"5950_20160419_103156","Permit license or inspection report not posted","Low Risk"
26341,"Natural Market, Inc.","2201 PINE St",94115,37.788113,-122.432147,"(37.788113, -122.432147)",14155921320,"26341_20160602","6/2/16",98,"26341_20160602_103145","Improper storage of equipment utensils or linens","Low Risk"
4787,"TONY BALONEY'S","1098 HOWARD St",94103,37.778033,-122.40943,"(37.778033, -122.40943)",14155861514,"4787_20171002","10/2/17",86,"4787_20171002_103157","Food safety certificate or food handler card not available","Low Risk"
773,"MARIPOSA HUNTERS POINT YACHT CLUB","405 TERRY FRANCOIS Blvd",94107,37.77325,-122.387222,"(37.77325, -122.387222)",14155789296,"773_20180913","9/13/18",98,"773_20180913_103161","Low risk vermin infestation","Low Risk"
619,"A-1 BAKERY","1727 OCEAN Ave",94112,37.724824,-122.460726,"(37.724824, -122.460726)",14155586923,"619_20170929","9/29/17",90,"619_20170929_103144","Unapproved or unmaintained equipment or utensils","Low Risk"
10886,"Taste of Formosa","2428 CLEMENT ST",94121,37.782018,-122.485421,"(37.782018, -122.485421)",14155666368,"10886_20180906","9/6/18",88,"10886_20180906_103144","Unapproved or unmaintained equipment or utensils","Low Risk"
69368,"Onigilly","343 Kearny St",94108,37.791149,-122.404171,"(37.791149, -122.404171)",14155674706,"69368_20160505","5/5/16",86,"69368_20160505_103147","Inadequate ventilation or lighting","Low Risk"
2421,"ST FRANCIS FOUNTAIN","2801 24th St",94110,37.752833,-122.408349,"(37.752833, -122.408349)",14155824200,"2421_20160120","1/20/16",85,"2421_20160120_103161","Low risk vermin infestation","Low Risk"
37792,"Auntie Anne's Pretzels","845 Market St Space 201",94103,37.784848,-122.406892,"(37.784848, -122.406892)",14155371098,"37792_20180228","2/28/18",96,"37792_20180228_103154","Unclean or degraded floors walls or ceilings","Low Risk"
70452,"Kennedy Market & Deli","4600 03rd St",94124,37.736301,-122.390293,"(37.736301, -122.390293)",14155285560,"70452_20151007","10/7/15",90,"70452_20151007_103144","Unapproved or unmaintained equipment or utensils","Low Risk"
619,"A-1 BAKERY","1727 OCEAN Ave",94112,37.724824,-122.460726,"(37.724824, -122.460726)",14155586923,"619_20170929","9/29/17",90,"619_20170929_103136","Unsanitary employee garments hair or nails","Low Risk"
3948,"Mel's Drive-In","833 MISSION St",94103,37.78355,-122.405356,"(37.78355, -122.405356)",14155220793,"3948_20160328","3/28/16",90,"3948_20160328_103154","Unclean or degraded floors walls or ceilings","Low Risk"
1595,"Zazie","941 COLE St",94117,37.765343,-122.449914,"(37.765343, -122.449914)",14155565332,"1595_20171214","12/14/17",92,"1595_20171214_103157","Food safety certificate or food handler card not available","Low Risk"
70516,"Shabu House","2608 Ocean Ave",94132,37.731746,-122.473318,"(37.731746, -122.473318)",14155588800,"70516_20180227","2/27/18",94,"70516_20180227_103154","Unclean or degraded floors walls or ceilings","Low Risk"
59872,"KAMEKYO","943 COLE St",94117,37.765164,-122.449874,"(37.765164, -122.449874)",14155758428,"59872_20171214","12/14/17",89,"59872_20171214_103144","Unapproved or unmaintained equipment or utensils","Low Risk"
2326,"IRMA'S PAMPANGA RESTAURANT","2901 16th St",94103,37.765123,-122.417919,"(37.765123, -122.417919)",14155626688,"2326_20151105","11/5/15",63,"2326_20151105_103147","Inadequate ventilation or lighting","Low Risk"
10332,"Harvest Urban Market","191 08th St",94103,37.776384,-122.411684,"(37.776384, -122.411684)",14155620805,"10332_20171002","10/2/17",79,"10332_20171002_103156","Permit license or inspection report not posted","Low Risk"
3394,"The Keystone","68 04th St",94103,37.784915,-122.404832,"(37.784915, -122.404832)",14155984400,"3394_20160419","4/19/16",90,"3394_20160419_103156","Permit license or inspection report not posted","Low Risk"
2406,"THEP-PHANON RESTAURANT","400 WALLER St",94117,37.77124,-122.430299,"(37.77124, -122.430299)",14155432526,"2406_20180301","3/1/18",85,"2406_20180301_103144","Unapproved or unmaintained equipment or utensils","Low Risk"
5853,"RAOUL WALLENBERG HIGH SCHOOL","40 VEGA St",94115,37.780133,-122.445864,"(37.780133, -122.445864)",14155743469,"5853_20180912","9/12/18",94,"5853_20180912_103144","Unapproved or unmaintained equipment or utensils","Low Risk"
63503,"Mason Street Deli and Market","39 MASON",94102,37.784094,-122.409274,"(37.784094, -122.409274)",14155624312,"63503_20170929","9/29/17",88,"63503_20170929_103138","Improper storage use or identification of toxic substances","Low Risk"
2689,"THE BLUE PLATE","3218 MISSION St",94110,37.745158,-122.420217,"(37.745158, -122.420217)",14155286777,"2689_20180518","5/18/18",91,"2689_20180518_103139","Improper food storage","Low Risk"
5855,"SOTA (SCHOOL OF THE ARTS)","555 Portola Dr",94131,37.745674,-122.45085,"(37.745674, -122.45085)",14155695700,"5855_20160419","4/19/16",96,"5855_20160419_103161","Low risk vermin infestation","Low Risk"
7087,"VALENCIA FARMER'S MARKET","1299 VALENCIA St",94110,37.752162,-122.420585,"(37.752162, -122.420585)",14155286863,"7087_20160701","7/1/16",92,"7087_20160701_103144","Unapproved or unmaintained equipment or utensils","Low Risk"
2973,"KOH SAMUI & THE MONKEY","415 BRANNAN St",94107,37.779777,-122.394673,"(37.779777, -122.394673)",14155579885,"2973_20180523","5/23/18",88,"2973_20180523_103149","Wiping cloths not clean or properly stored or inadequate sanitizer","Low Risk"
741,"MOZZARELLA DI BUFALA PIZZERIA II","069 WEST PORTAL Ave",94127,37.740052,-122.466544,"(37.740052, -122.466544)",14155668900,"741_20160610","6/10/16",83,"741_20160610_103144","Unapproved or unmaintained equipment or utensils","Low Risk"
2749,"TAQUERIA CANCUN","3211 MISSION St",94110,37.745433,-122.419945,"(37.745433, -122.419945)",14155551414,"2749_20160609","6/9/16",89,"2749_20160609_103154","Unclean or degraded floors walls or ceilings","Low Risk"
3343,"PERRYS","1944 UNION St",94123,37.797648,-122.431274,"(37.797648, -122.431274)",14155929022,"3343_20160907","9/7/16",96,"3343_20160907_103149","Wiping cloths not clean or properly stored or inadequate sanitizer","Low Risk"
65057,"The Brixton","2140 UNION St",94123,37.797238,-122.434533,"(37.797238, -122.434533)",14155401114,"65057_20171221","12/21/17",92,"65057_20171221_103154","Unclean or degraded floors walls or ceilings","Low Risk"
63493,"The Golden West","8 Trinity Pl",94104,37.790053,-122.402586,"(37.790053, -122.402586)",14155270896,"63493_20151222","12/22/15",83,"63493_20151222_103138","Improper storage use or identification of toxic substances","Low Risk"
3870,"LA ALTENA","3346 MISSION St",94110,37.743206,-122.421546,"(37.743206, -122.421546)",14155648415,"3870_20160608","6/8/16",79,"3870_20160608_103149","Wiping cloths not clean or properly stored or inadequate sanitizer","Low Risk"
70838,"Trattoria Da Vittorio","150 WEST PORTAL Ave",94127,37.739223,-122.46766,"(37.739223, -122.46766)",14150507976,"70838_20160610","6/10/16",88,"70838_20160610_103147","Inadequate ventilation or lighting","Low Risk"
3095,"Whitcomb Hotel Bar & Grill","1231 MARKET St",94103,37.778357,-122.415182,"(37.778357, -122.415182)",14155628000,"3095_20160630","6/30/16",85,"3095_20160630_103154","Unclean or degraded floors walls or ceilings","Low Risk"
903,"Sabra Restaurant","419 Grant Ave",94108,37.790874,-122.405634,"(37.790874, -122.405634)",14155983656,"903_20160630","6/30/16",90,"903_20160630_103157","Food safety certificate or food handler card not available","Low Risk"
3948,"Mel's Drive-In","833 MISSION St",94103,37.78355,-122.405356,"(37.78355, -122.405356)",14155220793,"3948_20160328","3/28/16",90,"3948_20160328_103145","Improper storage of equipment utensils or linens","Low Risk"
3631,"NOC NOC","557 HAIGHT St",94117,37.771964,-122.431336,"(37.771964, -122.431336)",14155865811,"3631_20180301","3/1/18",90,"3631_20180301_103157","Food safety certificate or food handler card not available","Low Risk"
2893,"FOREIGN CINEMA","2534 MISSION St",94110,37.756417,-122.418884,"(37.756417, -122.418884)",14155417600,"2893_20180523","5/23/18",88,"2893_20180523_103142","Unclean nonfood contact surfaces","Low Risk"
320,"NAPOLI PIZZA RESTAURANT","1045 POLK St",94109,37.786545,-122.419894,"(37.786545, -122.419894)",14155882222,"320_20171004","10/4/17",77,"320_20171004_103144","Unapproved or unmaintained equipment or utensils","Low Risk"
5859,"BURTON HIGH SCHOOL","400 MANSELL St",94134,37.720656,-122.405108,"(37.720656, -122.405108)",14155464570,"5859_20170927","9/27/17",94,"5859_20170927_103144","Unapproved or unmaintained equipment or utensils","Low Risk"
63406,"Baker Street Bistro","2953 BAKER St",94123,37.798172,-122.445962,"(37.798172, -122.445962)",14155931475,"63406_20160705","7/5/16",91,"63406_20160705_103154","Unclean or degraded floors walls or ceilings","Low Risk"
69368,"Onigilly","343 Kearny St",94108,37.791149,-122.404171,"(37.791149, -122.404171)",14155674706,"69368_20160505","5/5/16",86,"69368_20160505_103156","Permit license or inspection report not posted","Low Risk"
3256,"Connection, The","5740 MISSION St",94112,37.709737,-122.45007,"(37.709737, -122.45007)",14155336172,"3256_20171002","10/2/17",92,"3256_20171002_103154","Unclean or degraded floors walls or ceilings","Low Risk"
3256,"Connection, The","5740 MISSION St",94112,37.709737,-122.45007,"(37.709737, -122.45007)",14155336172,"3256_20171002","10/2/17",92,"3256_20171002_103145","Improper storage of equipment utensils or linens","Low Risk"
1154,"SUNFLOWER RESTAURANT","506 Valencia St",94103,37.764678,-122.421905,"(37.764678, -122.421905)",14155625023,"1154_20160912","9/12/16",76,"1154_20160912_103154","Unclean or degraded floors walls or ceilings","Low Risk"
1081,"ARINELL PIZZA","509 VALENCIA St",94110,37.764744,-122.421803,"(37.764744, -122.421803)",14155251303,"1081_20160222","2/22/16",84,"1081_20160222_103139","Improper food storage","Low Risk"
64938,"Xpress Market","498 O'Farrell St",94102,37.785861,-122.412954,"(37.785861, -122.412954)",14155923063,"64938_20180227","2/27/18",79,"64938_20180227_103156","Permit license or inspection report not posted","Low Risk"
5835,"Rosa Parks Elementary School","1501 O'Farrell St",94115,37.783604,-122.430141,"(37.783604, -122.430141)",14155745519,"5835_20160907","9/7/16",98,"5835_20160907_103149","Wiping cloths not clean or properly stored or inadequate sanitizer","Low Risk"
2326,"IRMA'S PAMPANGA RESTAURANT","2901 16th St",94103,37.765123,-122.417919,"(37.765123, -122.417919)",14155626688,"2326_20151105","11/5/15",63,"2326_20151105_103138","Improper storage use or identification of toxic substances","Low Risk"
1249,"KABABAYAN FAST FOOD","2706 MISSION St",94110,37.753691,-122.418657,"(37.753691, -122.418657)",14155929635,"1249_20171002","10/2/17",78,"1249_20171002_103155","Unapproved  living quarters in food facility","Low Risk"
1926,"LINCOLN PARK BAR AND GRILL","300 34th Ave",94121,37.782971,-122.496324,"(37.782971, -122.496324)",14155222254,"1926_20171013","10/13/17",84,"1926_20171013_103161","Low risk vermin infestation","Low Risk"
5959,"ST. JOHN'S SNACK BAR","925 CHENERY St",94131,37.735264,-122.437679,"(37.735264, -122.437679)",14155586144,"5959_20180301","3/1/18",98,"5959_20180301_103142","Unclean nonfood contact surfaces","Low Risk"
2692,"TYGER'S","2798 DIAMOND St",94131,37.734579,-122.4339,"(37.734579, -122.4339)",14155234064,"2692_20160330","3/30/16",86,"2692_20160330_103149","Wiping cloths not clean or properly stored or inadequate sanitizer","Low Risk"
37792,"Auntie Anne's Pretzels","845 Market St Space 201",94103,37.784848,-122.406892,"(37.784848, -122.406892)",14155371098,"37792_20160705","7/5/16",96,"37792_20160705_103142","Unclean nonfood contact surfaces","Low Risk"
35199,"Pho #1","2571 SAN BRUNO Ave",94134,37.729254,-122.40426,"(37.729254, -122.40426)",14155339289,"35199_20160610","6/10/16",88,"35199_20160610_103154","Unclean or degraded floors walls or ceilings","Low Risk"
62775,"Lombard Shell","1800 LOMBARD St",94123,37.800468,-122.431434,"(37.800468, -122.431434)",14155348063,"62775_20160912","9/12/16",94,"62775_20160912_103154","Unclean or degraded floors walls or ceilings","Low Risk"
5156,"McDONALD'S","302 POTRERO Ave",94110,37.765507,-122.407565,"(37.765507, -122.407565)",14155863295,"5156_20161024","10/24/16",84,"5156_20161024_103149","Wiping cloths not clean or properly stored or inadequate sanitizer","Low Risk"
3631,"NOC NOC","557 HAIGHT St",94117,37.771964,-122.431336,"(37.771964, -122.431336)",14155865811,"3631_20180301","3/1/18",90,"3631_20180301_103161","Low risk vermin infestation","Low Risk"
1262,"NORTH BEACH PIZZA","800 STANYAN St",94117,37.767286,-122.453075,"(37.767286, -122.453075)",14155752300,"1262_20171215","12/15/17",90,"1262_20171215_103154","Unclean or degraded floors walls or ceilings","Low Risk"
7517,"Discount Grocers","1203 Polk St",94109,37.787924,-122.420164,"(37.787924, -122.420164)",14155927385,"7517_20160504","5/4/16",98,"7517_20160504_103156","Permit license or inspection report not posted","Low Risk"
7214,"SUN FAT SEAFOOD","2687 MISSION St",94110,37.754094,-122.418586,"(37.754094, -122.418586)",14155289339,"7214_20180726","7/26/18",87,"7214_20180726_103142","Unclean nonfood contact surfaces","Low Risk"
5855,"SOTA (SCHOOL OF THE ARTS)","555 Portola Dr",94131,37.745674,-122.45085,"(37.745674, -122.45085)",14155695700,"5855_20160419","4/19/16",96,"5855_20160419_103154","Unclean or degraded floors walls or ceilings","Low Risk"
3309,"ALBORZ","1245 VAN NESS Ave",94109,37.787375,-122.421844,"(37.787375, -122.421844)",14155444321,"3309_20160115","1/15/16",86,"3309_20160115_103139","Improper food storage","Low Risk"
