"business_id","business_name","business_address","business_postal_code","business_latitude","business_longitude","business_location","business_phone_number","inspection_id","inspection_date","inspection_score","violation_id","violation_description","risk_category"
4787,"TONY BALONEY'S","1098 HOWARD St",94103,37.778033,-122.40943,"(37.778033, -122.40943)",14155861514,"4787_20160628","6/28/16",83,"4787_20160628_103131","Moderate risk vermin infestation","Moderate Risk"
33700,"Casa Guadalupe #3","2999 MISSION",94110,37.749194,-122.418116,"(37.749194, -122.418116)",14155875145,"33700_20160412","4/12/16",90,"33700_20160412_103119","Inadequate and inaccessible handwashing facilities","Moderate Risk"
59838,"OTD","2232 Bush St",94115,37.786988,-122.434074,"(37.786988, -122.434074)",14155929578,"59838_20160531","5/31/16",92,"59838_20160531_103133","Foods not protected from contamination","Moderate Risk"
70685,"5 Degree Tea House","2527 SAN BRUNO Ave",94134,37.729753,-122.40447,"(37.729753, -122.40447)",14155828233,"70685_20171212","12/12/17",86,"70685_20171212_103119","Inadequate and inaccessible handwashing facilities","Moderate Risk"
4907,"JIM GEORGIE'S DONUT","2799 16th St",94103,37.765262,-122.41523,"(37.765262, -122.41523)",14155867112,"4907_20170105","1/5/17",80,"4907_20170105_103131","Moderate risk vermin infestation","Moderate Risk"
69282,"New Jumbo Seafood Restaurant","1532 NORIEGA St",94122,37.754132,-122.480058,"(37.754132, -122.480058)",14155681800,"69282_20160413","4/13/16",76,"69282_20160413_103119","Inadequate and inaccessible handwashing facilities","Moderate Risk"
3253,"S F GOLF CLUB","1310 Junipero Serra Blvd",94132,37.711329,-122.471316,"(37.711329, -122.471316)",14155464100,"3253_20160413","4/13/16",88,"3253_20160413_103132","Improper thawing methods","Moderate Risk"
18826,"Fresca Restaurant","2114 FILLMORE St",94115,37.789074,-122.433783,"(37.789074, -122.433783)",14155442668,"18826_20160926","9/26/16",83,"18826_20160926_103119","Inadequate and inaccessible handwashing facilities","Moderate Risk"
69181,"Cha-Ya Restaurant","762 Valencia St",94110,37.760777,-122.421505,"(37.760777, -122.421505)",14155257825,"69181_20160330","3/30/16",92,"69181_20160330_103120","Moderate risk food holding temperature","Moderate Risk"
5913,"ST CHARLES SCHOOL","3250 18th St",94110,37.762074,-122.416107,"(37.762074, -122.416107)",14155867652,"5913_20160906","9/6/16",92,"5913_20160906_103131","Moderate risk vermin infestation","Moderate Risk"
13814,"Go Go Market & Deli","99 09th St",94103,37.774722,-122.406761,"(37.774722, -122.406761)",14155863536,"13814_20160930","9/30/16",82,"13814_20160930_103124","Inadequately cleaned or sanitized food contact surfaces","Moderate Risk"
2061,"ATAMI SUSHI BAR & GRILL","1662 LOMBARD St",94123,37.800788,-122.428894,"(37.800788, -122.428894)",14155611958,"2061_20180223","2/23/18",94,"2061_20180223_103133","Foods not protected from contamination","Moderate Risk"
63082,"The Brick Yard","1787 Union St",94123,37.797933,-122.428627,"(37.797933, -122.428627)",14156677676,"63082_20180222","2/22/18",87,"63082_20180222_103133","Foods not protected from contamination","Moderate Risk"
3253,"S F GOLF CLUB","1310 Junipero Serra Blvd",94132,37.711329,-122.471316,"(37.711329, -122.471316)",14155464100,"3253_20160413","4/13/16",88,"3253_20160413_103120","Moderate risk food holding temperature","Moderate Risk"
1005,"CHAVITA'S MEXICAN RESTAURANT","3006 MISSION St",94110,37.748855,-122.418134,"(37.748855, -122.418134)",14155286927,"1005_20160502","5/2/16",84,"1005_20160502_103131","Moderate risk vermin infestation","Moderate Risk"
64805,"Andersen Bread","1390 Market St Suite 110",94102,37.777053,-122.416939,"(37.777053, -122.416939)",14150427100,"64805_20170105","1/5/17",94,"64805_20170105_103120","Moderate risk food holding temperature","Moderate Risk"
999,"SERRANO'S PIZZA II","3274 21st St",94110,37.756997,-122.420534,"(37.756997, -122.420534)",14155691615,"999_20160503","5/3/16",81,"999_20160503_103133","Foods not protected from contamination","Moderate Risk"
4797,"Good Life Grocery, The","448 CORTLAND Ave",94110,37.739053,-122.416683,"(37.739053, -122.416683)",14155643221,"4797_20171130","11/30/17",86,"4797_20171130_103132","Improper thawing methods","Moderate Risk"
999,"SERRANO'S PIZZA II","3274 21st St",94110,37.756997,-122.420534,"(37.756997, -122.420534)",14155691615,"999_20160503","5/3/16",81,"999_20160503_103116","Inadequate food safety knowledge or lack of certified food safety manager","Moderate Risk"
13814,"Go Go Market & Deli","99 09th St",94103,37.774722,-122.406761,"(37.774722, -122.406761)",14155863536,"13814_20160930","9/30/16",82,"13814_20160930_103119","Inadequate and inaccessible handwashing facilities","Moderate Risk"
2724,"HUNAN EMPIRE","2001 Union St #107",94123,37.797443,-122.432537,"(37.797443, -122.432537)",14155774735,"2724_20160929","9/29/16",92,"2724_20160929_103119","Inadequate and inaccessible handwashing facilities","Moderate Risk"
5813,"LICK MIDDLE SCHOOL","1220 Noe St",94114,37.74949,-122.43175,"(37.74949, -122.43175)",14155816139,"5813_20151021","10/21/15",96,"5813_20151021_103120","Moderate risk food holding temperature","Moderate Risk"
4801,"YICK'S LIQUOR","4701 MISSION St",94112,37.72304,-122.436017,"(37.72304, -122.436017)",14155582662,"4801_20161110","11/10/16",94,"4801_20161110_103119","Inadequate and inaccessible handwashing facilities","Moderate Risk"
62064,"California Grocery","123 Eddy St",94102,37.784303,-122.409647,"(37.784303, -122.409647)",14155448608,"62064_20160411","4/11/16",75,"62064_20160411_103119","Inadequate and inaccessible handwashing facilities","Moderate Risk"
4804,"SUBWAY #31419","2599 SAN BRUNO Ave",94134,37.728933,-122.40413,"(37.728933, -122.40413)",14150540880,"4804_20161206","12/6/16",86,"4804_20161206_103132","Improper thawing methods","Moderate Risk"
2369,"CLOONEY'S","1401 Valencia St",94110,37.750374,-122.420456,"(37.750374, -122.420456)",14155824988,"2369_20160324","3/24/16",86,"2369_20160324_103120","Moderate risk food holding temperature","Moderate Risk"
2542,"PETER D'S RESTAURANT","2201 Van Ness St",94109,37.795993,-122.423585,"(37.795993, -122.423585)",14155778505,"2542_20171208","12/8/17",65,"2542_20171208_103116","Inadequate food safety knowledge or lack of certified food safety manager","Moderate Risk"
2134,"CHIEFTAIN IRISH PUB, THE","198 05th St",94103,37.781567,-122.405059,"(37.781567, -122.405059)",14155610916,"2134_20161109","11/9/16",87,"2134_20161109_103124","Inadequately cleaned or sanitized food contact surfaces","Moderate Risk"
62064,"California Grocery","123 Eddy St",94102,37.784303,-122.409647,"(37.784303, -122.409647)",14155448608,"62064_20160411","4/11/16",75,"62064_20160411_103129","Insufficient hot water or running water","Moderate Risk"
62308,"Sam's Diner","1220 Market Street",94102,37.778497,-122.415146,"(37.778497, -122.415146)",14155628590,"62308_20160203","2/3/16",72,"62308_20160203_103131","Moderate risk vermin infestation","Moderate Risk"
4702,"SHUFAT MARKET","3807 24th St",94114,37.751664,-122.427688,"(37.751664, -122.427688)",14155826207,"4702_20180226","2/26/18",96,"4702_20180226_103131","Moderate risk vermin infestation","Moderate Risk"
2755,"SOCIALE","3665 SACRAMENTO St",94118,37.787364,-122.45299,"(37.787364, -122.45299)",14155920309,"2755_20161205","12/5/16",85,"2755_20161205_103119","Inadequate and inaccessible handwashing facilities","Moderate Risk"
61856,"Yoppi Yogurt","101 California St",94111,37.793424,-122.398168,"(37.793424, -122.398168)",14155264677,"61856_20160413","4/13/16",90,"61856_20160413_103119","Inadequate and inaccessible handwashing facilities","Moderate Risk"
60544,"Manzoni","2790 Diamond St",94131,37.73473,-122.433823,"(37.73473, -122.433823)",14155332251,"60544_20160929","9/29/16",92,"60544_20160929_103120","Moderate risk food holding temperature","Moderate Risk"
5824,"S.F. International High School","1050 YORK St",94110,37.755257,-122.408455,"(37.755257, -122.408455)",14155695780,"5824_20180227","2/27/18",92,"5824_20180227_103116","Inadequate food safety knowledge or lack of certified food safety manager","Moderate Risk"
1005,"CHAVITA'S MEXICAN RESTAURANT","3006 MISSION St",94110,37.748855,-122.418134,"(37.748855, -122.418134)",14155286927,"1005_20160502","5/2/16",84,"1005_20160502_103124","Inadequately cleaned or sanitized food contact surfaces","Moderate Risk"
2497,"PLUTO'S","3258 SCOTT St",94123,37.799796,-122.441041,"(37.799796, -122.441041)",14155778867,"2497_20160607","6/7/16",85,"2497_20160607_103133","Foods not protected from contamination","Moderate Risk"
59838,"OTD","2232 Bush St",94115,37.786988,-122.434074,"(37.786988, -122.434074)",14155929578,"59838_20160531","5/31/16",92,"59838_20160531_103129","Insufficient hot water or running water","Moderate Risk"
66536,"Cypress Grill","99 Harding Park Rd",94132,37.723698,-122.495289,"(37.723698, -122.495289)",14155664690,"66536_20160413","4/13/16",90,"66536_20160413_103120","Moderate risk food holding temperature","Moderate Risk"
3267,"The Olive Garden Italian","3251 20th Ave",94132,37.728497,-122.475639,"(37.728497, -122.475639)",14155666770,"3267_20180510","5/10/18",83,"3267_20180510_103120","Moderate risk food holding temperature","Moderate Risk"
62308,"Sam's Diner","1220 Market Street",94102,37.778497,-122.415146,"(37.778497, -122.415146)",14155628590,"62308_20160203","2/3/16",72,"62308_20160203_103120","Moderate risk food holding temperature","Moderate Risk"
5847,"John Muir Elementary School","380 Webster St",94117,37.774046,-122.429076,"(37.774046, -122.429076)",14155246335,"5847_20160309","3/9/16",92,"5847_20160309_103131","Moderate risk vermin infestation","Moderate Risk"
5999,"The Salvation Army","1156 Valencia St",94110,37.754397,-122.420915,"(37.754397, -122.420915)",14155640260,"5999_20180724","7/24/18",90,"5999_20180724_103124","Inadequately cleaned or sanitized food contact surfaces","Moderate Risk"
7095,"ABE'S MARKET","378 FILLMORE St",94117,37.772822,-122.430498,"(37.772822, -122.430498)",14155862576,"7095_20171211","12/11/17",92,"7095_20171211_103119","Inadequate and inaccessible handwashing facilities","Moderate Risk"
5913,"ST CHARLES SCHOOL","3250 18th St",94110,37.762074,-122.416107,"(37.762074, -122.416107)",14155867652,"5913_20160906","9/6/16",92,"5913_20160906_103119","Inadequate and inaccessible handwashing facilities","Moderate Risk"
3825,"COVE CAFE","434 CASTRO St",94114,37.761918,-122.435135,"(37.761918, -122.435135)",14155620462,"3825_20180724","7/24/18",90,"3825_20180724_103132","Improper thawing methods","Moderate Risk"
2369,"CLOONEY'S","1401 Valencia St",94110,37.750374,-122.420456,"(37.750374, -122.420456)",14155824988,"2369_20160324","3/24/16",86,"2369_20160324_103119","Inadequate and inaccessible handwashing facilities","Moderate Risk"
64380,"Michael Mina Restaurant","252 California St",94111,37.793338,-122.399583,"(37.793338, -122.399583)",14155350791,"64380_20160414","4/14/16",86,"64380_20160414_103127","Noncompliance with HAACP plan or variance","Moderate Risk"
61856,"Yoppi Yogurt","101 California St",94111,37.793424,-122.398168,"(37.793424, -122.398168)",14155264677,"61856_20160413","4/13/16",90,"61856_20160413_103124","Inadequately cleaned or sanitized food contact surfaces","Moderate Risk"
3838,"CAFE PICARO","3120 16th St",94103,37.764908,-122.422442,"(37.764908, -122.422442)",14155434089,"3838_20180222","2/22/18",72,"3838_20180222_103116","Inadequate food safety knowledge or lack of certified food safety manager","Moderate Risk"
69792,"Samiramis Imports","2990 MISSION St",94110,37.74923,-122.418224,"(37.74923, -122.418224)",14155826555,"69792_20160412","4/12/16",88,"69792_20160412_103133","Foods not protected from contamination","Moderate Risk"
4864,"DRAGON CITY BAKERY & CAFE","2367 MISSION St",94110,37.759174,-122.419066,"(37.759174, -122.419066)",14155829718,"4864_20161206","12/6/16",84,"4864_20161206_103124","Inadequately cleaned or sanitized food contact surfaces","Moderate Risk"
1005,"CHAVITA'S MEXICAN RESTAURANT","3006 MISSION St",94110,37.748855,-122.418134,"(37.748855, -122.418134)",14155286927,"1005_20160502","5/2/16",84,"1005_20160502_103133","Foods not protected from contamination","Moderate Risk"
68716,"The Sweet House","3512 BALBOA St",94121,37.775818,-122.496401,"(37.775818, -122.496401)",14155871388,"68716_20180226","2/26/18",80,"68716_20180226_103129","Insufficient hot water or running water","Moderate Risk"
3839,"EL TORO TAQUERIA","598 VALENCIA St",94110,37.763458,-122.421784,"(37.763458, -122.421784)",14155433351,"3839_20160815","8/15/16",87,"3839_20160815_103133","Foods not protected from contamination","Moderate Risk"
65086,"Bun Mee","2015 FILLMORE St",94115,37.788193,-122.433714,"(37.788193, -122.433714)",14155807696,"65086_20180905","9/5/18",88,"65086_20180905_103131","Moderate risk vermin infestation","Moderate Risk"
4864,"DRAGON CITY BAKERY & CAFE","2367 MISSION St",94110,37.759174,-122.419066,"(37.759174, -122.419066)",14155829718,"4864_20161206","12/6/16",84,"4864_20161206_103119","Inadequate and inaccessible handwashing facilities","Moderate Risk"
66536,"Cypress Grill","99 Harding Park Rd",94132,37.723698,-122.495289,"(37.723698, -122.495289)",14155664690,"66536_20160413","4/13/16",90,"66536_20160413_103118","Employee eating or smoking","Moderate Risk"
18826,"Fresca Restaurant","2114 FILLMORE St",94115,37.789074,-122.433783,"(37.789074, -122.433783)",14155442668,"18826_20160926","9/26/16",83,"18826_20160926_103131","Moderate risk vermin infestation","Moderate Risk"
2447,"NEW CASTILLITO INC.","2092 MISSION St",94110,37.76356,-122.419582,"(37.76356, -122.419582)",14155626971,"2447_20180911","9/11/18",89,"2447_20180911_103124","Inadequately cleaned or sanitized food contact surfaces","Moderate Risk"
70494,"The Little Chihuahua Mexican Restaurant","581 VALENCIA St",94110,37.763664,-122.421736,"(37.763664, -122.421736)",14155207111,"70494_20160216","2/16/16",92,"70494_20160216_103133","Foods not protected from contamination","Moderate Risk"
26149,"Mrs. Fields Cookies","865 Market St 9000",94103,37.784317,-122.407563,"(37.784317, -122.407563)",14155971993,"26149_20180516","5/16/18",92,"26149_20180516_103119","Inadequate and inaccessible handwashing facilities","Moderate Risk"
13814,"Go Go Market & Deli","99 09th St",94103,37.774722,-122.406761,"(37.774722, -122.406761)",14155863536,"13814_20160930","9/30/16",82,"13814_20160930_103116","Inadequate food safety knowledge or lack of certified food safety manager","Moderate Risk"
5823,"WEBSTER ELEMENTARY SCHOOL","465 MISSOURI St",94107,37.760474,-122.396296,"(37.760474, -122.396296)",14155695787,"5823_20160322","3/22/16",92,"5823_20160322_103116","Inadequate food safety knowledge or lack of certified food safety manager","Moderate Risk"
37820,"Natural Sensations","1650 HOLLOWAY St #134",94132,37.720894,-122.478029,"(37.720894, -122.478029)",14155238257,"37820_20160509","5/9/16",96,"37820_20160509_103120","Moderate risk food holding temperature","Moderate Risk"
69792,"Samiramis Imports","2990 MISSION St",94110,37.74923,-122.418224,"(37.74923, -122.418224)",14155826555,"69792_20160412","4/12/16",88,"69792_20160412_103119","Inadequate and inaccessible handwashing facilities","Moderate Risk"
64380,"Michael Mina Restaurant","252 California St",94111,37.793338,-122.399583,"(37.793338, -122.399583)",14155350791,"64380_20160414","4/14/16",86,"64380_20160414_103124","Inadequately cleaned or sanitized food contact surfaces","Moderate Risk"
5033,"DESTINATION BAKING COMPANY","598 Chenery St",94131,37.734619,-122.432379,"(37.734619, -122.432379)",14155460730,"5033_20170104","1/4/17",86,"5033_20170104_103120","Moderate risk food holding temperature","Moderate Risk"
4893,"S & W MARKET","399 HAIGHT St",94102,37.772323,-122.428627,"(37.772323, -122.428627)",14155862346,"4893_20171211","12/11/17",92,"4893_20171211_103131","Moderate risk vermin infestation","Moderate Risk"
1641,"MARTHA & BROS. COFFEE CO","1551 Church St",94131,37.745974,-122.426856,"(37.745974, -122.426856)",14155641166,"1641_20160812","8/12/16",84,"1641_20160812_103116","Inadequate food safety knowledge or lack of certified food safety manager","Moderate Risk"
4804,"SUBWAY #31419","2599 SAN BRUNO Ave",94134,37.728933,-122.40413,"(37.728933, -122.40413)",14150540880,"4804_20161206","12/6/16",86,"4804_20161206_103119","Inadequate and inaccessible handwashing facilities","Moderate Risk"
7755,"ARIZMENDI BAKERY","1331 09th Ave",94122,37.763448,-122.466344,"(37.763448, -122.466344)",14155563117,"7755_20180904","9/4/18",92,"7755_20180904_103121","Inadequate procedures or records for time as a public health control","Moderate Risk"
4917,"LA VICTORIA BAKERY","2937 24th St",94110,37.752373,-122.410876,"(37.752373, -122.410876)",14155647120,"4917_20160906","9/6/16",78,"4917_20160906_103119","Inadequate and inaccessible handwashing facilities","Moderate Risk"
4874,"JUMP START COFFEE & GROCERY","1192 GUERRERO St",94110,37.752118,-122.422914,"(37.752118, -122.422914)",14155647555,"4874_20160502","5/2/16",90,"4874_20160502_103120","Moderate risk food holding temperature","Moderate Risk"
1734,"SAI JAI THAI","771 O'FARRELL St",94109,37.785182,-122.417409,"(37.785182, -122.417409)",14155675774,"1734_20160311","3/11/16",82,"1734_20160311_103120","Moderate risk food holding temperature","Moderate Risk"
4917,"LA VICTORIA BAKERY","2937 24th St",94110,37.752373,-122.410876,"(37.752373, -122.410876)",14155647120,"4917_20160906","9/6/16",78,"4917_20160906_103133","Foods not protected from contamination","Moderate Risk"
5011,"STARBUCKS COFFEE CO","1231 MARKET St",94103,37.778357,-122.415182,"(37.778357, -122.415182)",14155521438,"5011_20180515","5/15/18",96,"5011_20180515_103119","Inadequate and inaccessible handwashing facilities","Moderate Risk"
4874,"JUMP START COFFEE & GROCERY","1192 GUERRERO St",94110,37.752118,-122.422914,"(37.752118, -122.422914)",14155647555,"4874_20160502","5/2/16",90,"4874_20160502_103131","Moderate risk vermin infestation","Moderate Risk"
5815,"ALVARADO ELEMENTARY SCHOOL","625  DOUGLASS St",94114,37.753684,-122.438696,"(37.753684, -122.438696)",14155695695,"5815_20170928","9/28/17",96,"5815_20170928_103124","Inadequately cleaned or sanitized food contact surfaces","Moderate Risk"
32671,"La Taqueria Guadalajara","3146 24th St",94110,37.752512,-122.415109,"(37.752512, -122.415109)",14155644892,"32671_20180508","5/8/18",75,"32671_20180508_103120","Moderate risk food holding temperature","Moderate Risk"
7527,"DON CHUYS MEXI-MERCADO","544 EXCELSIOR Ave",94112,37.724122,-122.429309,"(37.724122, -122.429309)",14155588092,"7527_20160812","8/12/16",96,"7527_20160812_103120","Moderate risk food holding temperature","Moderate Risk"
5925,"ARCHBISHOP RIORDAN HIGH SCHOOL CAFE","175 PHELAN",94112,37.727337,-122.45245,"(37.727337, -122.45245)",14155588200,"5925_20180223","2/23/18",90,"5925_20180223_103119","Inadequate and inaccessible handwashing facilities","Moderate Risk"
5852,"CARVER ELEMENTARY SCHOOL","1360 OAKDALE Ave",94124,37.732408,-122.386391,"(37.732408, -122.386391)",14155331540,"5852_20160906","9/6/16",96,"5852_20160906_103124","Inadequately cleaned or sanitized food contact surfaces","Moderate Risk"
3649,"SAFEWAY #1490","2300 16th St",94103,37.765708,-122.409002,"(37.765708, -122.409002)",14155571120,"3649_20171206","12/6/17",82,"3649_20171206_103131","Moderate risk vermin infestation","Moderate Risk"
3920,"BOSTON MARKET","2300 16th St",94103,37.765708,-122.409002,"(37.765708, -122.409002)",14155867666,"3920_20160516","5/16/16",88,"3920_20160516_103131","Moderate risk vermin infestation","Moderate Risk"
5815,"ALVARADO ELEMENTARY SCHOOL","625  DOUGLASS St",94114,37.753684,-122.438696,"(37.753684, -122.438696)",14155695695,"5815_20160503","5/3/16",90,"5815_20160503_103120","Moderate risk food holding temperature","Moderate Risk"
5866,"KING ELEMENTARY SCHOOL","1215 CAROLINA St",94107,37.753196,-122.39939,"(37.753196, -122.39939)",14155695797,"5866_20180227","2/27/18",96,"5866_20180227_103116","Inadequate food safety knowledge or lack of certified food safety manager","Moderate Risk"
4479,"Courtney's Produce II","101 CASTRO St",94114,37.767194,-122.435576,"(37.767194, -122.435576)",14155621850,"4479_20170105","1/5/17",92,"4479_20170105_103124","Inadequately cleaned or sanitized food contact surfaces","Moderate Risk"
1249,"KABABAYAN FAST FOOD","2706 MISSION St",94110,37.753691,-122.418657,"(37.753691, -122.418657)",14155929635,"1249_20180515","5/15/18",74,"1249_20180515_103116","Inadequate food safety knowledge or lack of certified food safety manager","Moderate Risk"
1641,"MARTHA & BROS. COFFEE CO","1551 Church St",94131,37.745974,-122.426856,"(37.745974, -122.426856)",14155641166,"1641_20160812","8/12/16",84,"1641_20160812_103118","Employee eating or smoking","Moderate Risk"
300,"SUBWAY","2001 VAN NESS Ave",94109,37.794134,-122.423234,"(37.794134, -122.423234)",14155779929,"300_20160413","4/13/16",68,"300_20160413_103133","Foods not protected from contamination","Moderate Risk"
4797,"Good Life Grocery, The","448 CORTLAND Ave",94110,37.739053,-122.416683,"(37.739053, -122.416683)",14155643221,"4797_20171130","11/30/17",86,"4797_20171130_103120","Moderate risk food holding temperature","Moderate Risk"
1339,"HIGHER GROUNDS","691 CHENERY St",94131,37.734483,-122.43368,"(37.734483, -122.43368)",14155582933,"1339_20160414","4/14/16",90,"1339_20160414_103120","Moderate risk food holding temperature","Moderate Risk"
13814,"Go Go Market & Deli","99 09th St",94103,37.774722,-122.406761,"(37.774722, -122.406761)",14155863536,"13814_20160930","9/30/16",82,"13814_20160930_103131","Moderate risk vermin infestation","Moderate Risk"
300,"SUBWAY","2001 VAN NESS Ave",94109,37.794134,-122.423234,"(37.794134, -122.423234)",14155779929,"300_20160413","4/13/16",68,"300_20160413_103116","Inadequate food safety knowledge or lack of certified food safety manager","Moderate Risk"
4804,"SUBWAY #31419","2599 SAN BRUNO Ave",94134,37.728933,-122.40413,"(37.728933, -122.40413)",14150540880,"4804_20161206","12/6/16",86,"4804_20161206_103116","Inadequate food safety knowledge or lack of certified food safety manager","Moderate Risk"
4643,"CHEUNG HING CHINESE DELI & MEAT INC","323 Clement St",94118,37.782993,-122.462709,"(37.782993, -122.462709)",14155754259,"4643_20160512","5/12/16",67,"4643_20160512_103131","Moderate risk vermin infestation","Moderate Risk"
5815,"ALVARADO ELEMENTARY SCHOOL","625  DOUGLASS St",94114,37.753684,-122.438696,"(37.753684, -122.438696)",14155695695,"5815_20160503","5/3/16",90,"5815_20160503_103121","Inadequate procedures or records for time as a public health control","Moderate Risk"
2638,"SF BAGEL CO. (KATZ BAGELS)","3147 16th St",94103,37.764814,-122.423089,"(37.764814, -122.423089)",14155559050,"2638_20180830","8/30/18",86,"2638_20180830_103133","Foods not protected from contamination","Moderate Risk"
5926,"SAN FRANCISCO SCHOOL, THE","300 GAVEN St",94134,37.732518,-122.411648,"(37.732518, -122.411648)",14155235065,"5926_20180223","2/23/18",96,"5926_20180223_103133","Foods not protected from contamination","Moderate Risk"
3920,"BOSTON MARKET","2300 16th St",94103,37.765708,-122.409002,"(37.765708, -122.409002)",14155867666,"3920_20160516","5/16/16",88,"3920_20160516_103119","Inadequate and inaccessible handwashing facilities","Moderate Risk"
4794,"VICTOR'S","210 TOWNSEND St",94107,37.778634,-122.393089,"(37.778634, -122.393089)",14155607018,"4794_20170105","1/5/17",90,"4794_20170105_103124","Inadequately cleaned or sanitized food contact surfaces","Moderate Risk"
59009,"Woodhouse Fish Co.","1914 FILLMORE St",94116,37.787386,-122.433476,"(37.787386, -122.433476)",14155432722,"59009_20160926","9/26/16",92,"59009_20160926_103131","Moderate risk vermin infestation","Moderate Risk"
4917,"LA VICTORIA BAKERY","2937 24th St",94110,37.752373,-122.410876,"(37.752373, -122.410876)",14155647120,"4917_20160906","9/6/16",78,"4917_20160906_103131","Moderate risk vermin infestation","Moderate Risk"
33160,"Mission Bay Cafe","550 Terry Francois St",94158,37.770518,-122.386525,"(37.770518, -122.386525)",14155831002,"33160_20161205","12/5/16",94,"33160_20161205_103120","Moderate risk food holding temperature","Moderate Risk"
2357,"CHINA EXPRESS","2798 MISSION St",94110,37.752408,-122.418535,"(37.752408, -122.418535)",14155640881,"2357_20180723","7/23/18",81,"2357_20180723_103118","Employee eating or smoking","Moderate Risk"
1734,"SAI JAI THAI","771 O'FARRELL St",94109,37.785182,-122.417409,"(37.785182, -122.417409)",14155675774,"1734_20160311","3/11/16",82,"1734_20160311_103119","Inadequate and inaccessible handwashing facilities","Moderate Risk"
5219,"SALVATION ARMY GATEWAY","407 09th St",94103,37.772473,-122.409879,"(37.772473, -122.409879)",14155256100,"5219_20180511","5/11/18",94,"5219_20180511_103131","Moderate risk vermin infestation","Moderate Risk"
3228,"THANH LONG RESTAURANT","4101 JUDAH St",94122,37.760383,-122.50609,"(37.760383, -122.50609)",14155257984,"3228_20160330","3/30/16",92,"3228_20160330_103133","Foods not protected from contamination","Moderate Risk"
62179,"Pampanguena Cuisine","4441 Mission St",94112,37.727111,-122.432926,"(37.727111, -122.432926)",14155588899,"62179_20160629","6/29/16",92,"62179_20160629_103133","Foods not protected from contamination","Moderate Risk"
71356,"Padrecito","901 Cole St",94117,37.765644,-122.449974,"(37.765644, -122.449974)",14155502083,"71356_20170606","6/6/17",87,"71356_20170606_103124","Inadequately cleaned or sanitized food contact surfaces","Moderate Risk"
65724,"Le Meridien SF Main Kitchen/Employee Cafeteria","333 Battery St Level A & B",94111,37.799005,-122.399862,"(37.799005, -122.399862)",14155292904,"65724_20161108","11/8/16",96,"65724_20161108_103127","Noncompliance with HAACP plan or variance","Moderate Risk"
4907,"JIM GEORGIE'S DONUT","2799 16th St",94103,37.765262,-122.41523,"(37.765262, -122.41523)",14155867112,"4907_20170105","1/5/17",80,"4907_20170105_103132","Improper thawing methods","Moderate Risk"
4864,"DRAGON CITY BAKERY & CAFE","2367 MISSION St",94110,37.759174,-122.419066,"(37.759174, -122.419066)",14155829718,"4864_20161206","12/6/16",84,"4864_20161206_103133","Foods not protected from contamination","Moderate Risk"
5847,"John Muir Elementary School","380 Webster St",94117,37.774046,-122.429076,"(37.774046, -122.429076)",14155246335,"5847_20160309","3/9/16",92,"5847_20160309_103119","Inadequate and inaccessible handwashing facilities","Moderate Risk"
300,"SUBWAY","2001 VAN NESS Ave",94109,37.794134,-122.423234,"(37.794134, -122.423234)",14155779929,"300_20160413","4/13/16",68,"300_20160413_103119","Inadequate and inaccessible handwashing facilities","Moderate Risk"
2724,"HUNAN EMPIRE","2001 Union St #107",94123,37.797443,-122.432537,"(37.797443, -122.432537)",14155774735,"2724_20160929","9/29/16",92,"2724_20160929_103120","Moderate risk food holding temperature","Moderate Risk"
5607,"SFSU STATION CAFE","1600 Holloway Ave",94132,37.720851,-122.477084,"(37.720851, -122.477084)",14155374525,"5607_20171128","11/28/17",87,"5607_20171128_103119","Inadequate and inaccessible handwashing facilities","Moderate Risk"
4797,"Good Life Grocery, The","448 CORTLAND Ave",94110,37.739053,-122.416683,"(37.739053, -122.416683)",14155643221,"4797_20171130","11/30/17",86,"4797_20171130_103131","Moderate risk vermin infestation","Moderate Risk"
59009,"Woodhouse Fish Co.","1914 FILLMORE St",94116,37.787386,-122.433476,"(37.787386, -122.433476)",14155432722,"59009_20160926","9/26/16",92,"59009_20160926_103133","Foods not protected from contamination","Moderate Risk"
2134,"CHIEFTAIN IRISH PUB, THE","198 05th St",94103,37.781567,-122.405059,"(37.781567, -122.405059)",14155610916,"2134_20171211","12/11/17",87,"2134_20171211_103127","Noncompliance with HAACP plan or variance","Moderate Risk"
63124,"Marengo on Union","1980 Union St Upper Street Level",94123,37.797578,-122.431883,"(37.797578, -122.431883)",14155442575,"63124_20160929","9/29/16",94,"63124_20160929_103118","Employee eating or smoking","Moderate Risk"
6000,"Mission Neighborhood Centers","362 Capp St",94110,37.761007,-122.418215,"(37.761007, -122.418215)",14155207747,"6000_20160324","3/24/16",92,"6000_20160324_103116","Inadequate food safety knowledge or lack of certified food safety manager","Moderate Risk"
300,"SUBWAY","2001 VAN NESS Ave",94109,37.794134,-122.423234,"(37.794134, -122.423234)",14155779929,"300_20160413","4/13/16",68,"300_20160413_103120","Moderate risk food holding temperature","Moderate Risk"
7207,"GOLDEN PRODUCE","172 CHURCH St",94114,37.768187,-122.429024,"(37.768187, -122.429024)",14155431536,"7207_20170105","1/5/17",92,"7207_20170105_103131","Moderate risk vermin infestation","Moderate Risk"
59838,"OTD","2232 Bush St",94115,37.786988,-122.434074,"(37.786988, -122.434074)",14155929578,"59838_20180723","7/23/18",80,"59838_20180723_103119","Inadequate and inaccessible handwashing facilities","Moderate Risk"
323,"WAYO","1407 VAN NESS Ave",94109,37.788609,-122.42213,"(37.788609, -122.42213)",14155478369,"323_20161108","11/8/16",94,"323_20161108_103120","Moderate risk food holding temperature","Moderate Risk"
544,"THAI TIME RESTAURANT","315 08th Ave",94118,37.782534,-122.466615,"(37.782534, -122.466615)",14155387992,"544_20160608","6/8/16",78,"544_20160608_103131","Moderate risk vermin infestation","Moderate Risk"
2357,"CHINA EXPRESS","2798 MISSION St",94110,37.752408,-122.418535,"(37.752408, -122.418535)",14155640881,"2357_20151230","12/30/15",70,"2357_20151230_103119","Inadequate and inaccessible handwashing facilities","Moderate Risk"
5868,"LONGFELLOW ELEMENTARY SCHOOL","755 MORSE St",94112,37.710459,-122.447713,"(37.710459, -122.447713)",14155464730,"5868_20160908","9/8/16",90,"5868_20160908_103129","Insufficient hot water or running water","Moderate Risk"
38530,"Portico IV","550 Market St",94104,37.789804,-122.40077,"(37.789804, -122.40077)",14155399994,"38530_20160512","5/12/16",85,"38530_20160512_103124","Inadequately cleaned or sanitized food contact surfaces","Moderate Risk"
1931,"YUMMY YUMMY VIETNAMESE RESTAURANT","1015 IRVING St",94122,37.763913,-122.468809,"(37.763913, -122.468809)",14155564722,"1931_20180108","1/8/18",92,"1931_20180108_103120","Moderate risk food holding temperature","Moderate Risk"
7361,"PastaGina","741 Diamond St",94114,37.751403,-122.436286,"(37.751403, -122.436286)",14155280738,"7361_20160503","5/3/16",86,"7361_20160503_103120","Moderate risk food holding temperature","Moderate Risk"
4794,"VICTOR'S","210 TOWNSEND St",94107,37.778634,-122.393089,"(37.778634, -122.393089)",14155607018,"4794_20170105","1/5/17",90,"4794_20170105_103131","Moderate risk vermin infestation","Moderate Risk"
62308,"Sam's Diner","1220 Market Street",94102,37.778497,-122.415146,"(37.778497, -122.415146)",14155628590,"62308_20160203","2/3/16",72,"62308_20160203_103116","Inadequate food safety knowledge or lack of certified food safety manager","Moderate Risk"
62578,"New Chef Hung's Restaurant","823 Clay St",94108,37.794193,-122.406677,"(37.794193, -122.406677)",14155396883,"62578_20171207","12/7/17",66,"62578_20171207_103129","Insufficient hot water or running water","Moderate Risk"
4643,"CHEUNG HING CHINESE DELI & MEAT INC","323 Clement St",94118,37.782993,-122.462709,"(37.782993, -122.462709)",14155754259,"4643_20160512","5/12/16",67,"4643_20160512_103132","Improper thawing methods","Moderate Risk"
5868,"LONGFELLOW ELEMENTARY SCHOOL","755 MORSE St",94112,37.710459,-122.447713,"(37.710459, -122.447713)",14155464730,"5868_20160908","9/8/16",90,"5868_20160908_103119","Inadequate and inaccessible handwashing facilities","Moderate Risk"
5877,"CLAIRE LILIENTHAL SCHOOL-MADISON CA","3950 SACRAMENTO St",94118,37.786808,-122.458014,"(37.786808, -122.458014)",14155758603,"5877_20160411","4/11/16",94,"5877_20160411_103116","Inadequate food safety knowledge or lack of certified food safety manager","Moderate Risk"
1042,"LOVE 'N HAIGHT COFFEE & DELI","553 HAIGHT St",94117,37.771964,-122.431336,"(37.771964, -122.431336)",14155258190,"1042_20171211","12/11/17",92,"1042_20171211_103131","Moderate risk vermin infestation","Moderate Risk"
1778,"Academy Bar & Kitchen","1800 Fillmore St",94115,37.786498,-122.430283,"(37.786498, -122.430283)",14155771800,"1778_20171213","12/13/17",94,"1778_20171213_103124","Inadequately cleaned or sanitized food contact surfaces","Moderate Risk"
18462,"Jack's Market","471 03rd St",94107,37.781607,-122.396125,"(37.781607, -122.396125)",14150297778,"18462_20180515","5/15/18",96,"18462_20180515_103119","Inadequate and inaccessible handwashing facilities","Moderate Risk"
2759,"CASA MEXICANA","180 CHURCH",94114,37.768127,-122.429024,"(37.768127, -122.429024)",14155802771,"2759_20180516","5/16/18",84,"2759_20180516_103119","Inadequate and inaccessible handwashing facilities","Moderate Risk"
69217,"Orexi Inc.","243 WEST PORTAL Ave",94127,37.738434,-122.468438,"(37.738434, -122.468438)",14155863810,"69217_20180830","8/30/18",92,"69217_20180830_103124","Inadequately cleaned or sanitized food contact surfaces","Moderate Risk"
544,"THAI TIME RESTAURANT","315 08th Ave",94118,37.782534,-122.466615,"(37.782534, -122.466615)",14155387992,"544_20160608","6/8/16",78,"544_20160608_103132","Improper thawing methods","Moderate Risk"
32671,"La Taqueria Guadalajara","3146 24th St",94110,37.752512,-122.415109,"(37.752512, -122.415109)",14155644892,"32671_20180508","5/8/18",75,"32671_20180508_103124","Inadequately cleaned or sanitized food contact surfaces","Moderate Risk"
70452,"Kennedy Market & Deli","4600 03rd St",94124,37.736301,-122.390293,"(37.736301, -122.390293)",14155285560,"70452_20151007","10/7/15",90,"70452_20151007_103124","Inadequately cleaned or sanitized food contact surfaces","Moderate Risk"
2315,"TAQUERIA CAN-CUN","2288 MISSION St",94110,37.760487,-122.419285,"(37.760487, -122.419285)",14155259560,"2315_20160418","4/18/16",83,"2315_20160418_103120","Moderate risk food holding temperature","Moderate Risk"
2759,"CASA MEXICANA","180 CHURCH",94114,37.768127,-122.429024,"(37.768127, -122.429024)",14155802771,"2759_20180516","5/16/18",84,"2759_20180516_103133","Foods not protected from contamination","Moderate Risk"
2352,"SMILE'S  B.B.Q.","2619 MISSION St",94110,37.755013,-122.418665,"(37.755013, -122.418665)",14155281596,"2352_20180719","7/19/18",90,"2352_20180719_103124","Inadequately cleaned or sanitized food contact surfaces","Moderate Risk"
3825,"COVE CAFE","434 CASTRO St",94114,37.761918,-122.435135,"(37.761918, -122.435135)",14155620462,"3825_20180724","7/24/18",90,"3825_20180724_103124","Inadequately cleaned or sanitized food contact surfaces","Moderate Risk"
70685,"5 Degree Tea House","2527 SAN BRUNO Ave",94134,37.729753,-122.40447,"(37.729753, -122.40447)",14155828233,"70685_20171212","12/12/17",86,"70685_20171212_103124","Inadequately cleaned or sanitized food contact surfaces","Moderate Risk"
5999,"The Salvation Army","1156 Valencia St",94110,37.754397,-122.420915,"(37.754397, -122.420915)",14155640260,"5999_20180724","7/24/18",90,"5999_20180724_103131","Moderate risk vermin infestation","Moderate Risk"
2315,"TAQUERIA CAN-CUN","2288 MISSION St",94110,37.760487,-122.419285,"(37.760487, -122.419285)",14155259560,"2315_20160418","4/18/16",83,"2315_20160418_103133","Foods not protected from contamination","Moderate Risk"
64379,"Piccadilly Fish & Chips","1348 Polk St",94109,37.789299,-122.420352,"(37.789299, -122.420352)",14155776477,"64379_20180911","9/11/18",92,"64379_20180911_103124","Inadequately cleaned or sanitized food contact surfaces","Moderate Risk"
19041,"Nama Sushi","227 King St",94107,37.777398,-122.392391,"(37.777398, -122.392391)",14155492007,"19041_20161110","11/10/16",85,"19041_20161110_103119","Inadequate and inaccessible handwashing facilities","Moderate Risk"
26341,"Natural Market, Inc.","2201 PINE St",94115,37.788113,-122.432147,"(37.788113, -122.432147)",14155921320,"26341_20180723","7/23/18",96,"26341_20180723_103116","Inadequate food safety knowledge or lack of certified food safety manager","Moderate Risk"
62578,"New Chef Hung's Restaurant","823 Clay St",94108,37.794193,-122.406677,"(37.794193, -122.406677)",14155396883,"62578_20171207","12/7/17",66,"62578_20171207_103132","Improper thawing methods","Moderate Risk"
5835,"Rosa Parks Elementary School","1501 O'Farrell St",94115,37.783604,-122.430141,"(37.783604, -122.430141)",14155745519,"5835_20160318","3/18/16",94,"5835_20160318_103131","Moderate risk vermin infestation","Moderate Risk"
19373,"Las Isletas","4508 03rd St",94124,37.737021,-122.390043,"(37.737021, -122.390043)",14155577698,"19373_20151013","10/13/15",87,"19373_20151013_103119","Inadequate and inaccessible handwashing facilities","Moderate Risk"
62578,"New Chef Hung's Restaurant","823 Clay St",94108,37.794193,-122.406677,"(37.794193, -122.406677)",14155396883,"62578_20171207","12/7/17",66,"62578_20171207_103119","Inadequate and inaccessible handwashing facilities","Moderate Risk"
2357,"CHINA EXPRESS","2798 MISSION St",94110,37.752408,-122.418535,"(37.752408, -122.418535)",14155640881,"2357_20151230","12/30/15",70,"2357_20151230_103131","Moderate risk vermin infestation","Moderate Risk"
5838,"HARVEY MILK ELEMENTARY SCHOOL","4235 19th St",94114,37.759173,-122.436488,"(37.759173, -122.436488)",14155246276,"5838_20160316","3/16/16",90,"5838_20160316_103124","Inadequately cleaned or sanitized food contact surfaces","Moderate Risk"
62578,"New Chef Hung's Restaurant","823 Clay St",94108,37.794193,-122.406677,"(37.794193, -122.406677)",14155396883,"62578_20171207","12/7/17",66,"62578_20171207_103116","Inadequate food safety knowledge or lack of certified food safety manager","Moderate Risk"
2352,"SMILE'S  B.B.Q.","2619 MISSION St",94110,37.755013,-122.418665,"(37.755013, -122.418665)",14155281596,"2352_20180719","7/19/18",90,"2352_20180719_103120","Moderate risk food holding temperature","Moderate Risk"
4519,"HSS 121 CAFE","1600 HOLLOWAY Ave",94132,37.720851,-122.477084,"(37.720851, -122.477084)",14155374525,"4519_20160509","5/9/16",96,"4519_20160509_103129","Insufficient hot water or running water","Moderate Risk"
1042,"LOVE 'N HAIGHT COFFEE & DELI","553 HAIGHT St",94117,37.771964,-122.431336,"(37.771964, -122.431336)",14155258190,"1042_20171211","12/11/17",92,"1042_20171211_103118","Employee eating or smoking","Moderate Risk"
27377,"Sorabol","845 Market St FC-3",94103,37.784848,-122.406892,"(37.784848, -122.406892)",14155775959,"27377_20180514","5/14/18",87,"27377_20180514_103124","Inadequately cleaned or sanitized food contact surfaces","Moderate Risk"
6007,"BAYVIEE HUNTER Pt. ADULT DAY HE","1250 LA SALLE",94124,37.73241,-122.383559,"(37.73241, -122.383559)",14155824774,"6007_20180718","7/18/18",94,"6007_20180718_103123","Food in poor condition","Moderate Risk"
5843,"HOOVER MIDDLE SCHOOL","2290 14th Ave",94116,37.745374,-122.470308,"(37.745374, -122.470308)",14155752783,"5843_20160412","4/12/16",86,"5843_20160412_103129","Insufficient hot water or running water","Moderate Risk"
2032,"QUEEN ANNE HOTEL","1590 SUTTER St",94109,37.786988,-122.426464,"(37.786988, -122.426464)",14155442828,"2032_20160126","1/26/16",90,"2032_20160126_103129","Insufficient hot water or running water","Moderate Risk"
71380,"Curry Up Now","659 Valencia St",94110,37.762265,-122.421586,"(37.762265, -122.421586)",14155827000,"71380_20180516","5/16/18",94,"71380_20180516_103133","Foods not protected from contamination","Moderate Risk"
2315,"TAQUERIA CAN-CUN","2288 MISSION St",94110,37.760487,-122.419285,"(37.760487, -122.419285)",14155259560,"2315_20161207","12/7/16",88,"2315_20161207_103120","Moderate risk food holding temperature","Moderate Risk"
645,"TAN-TAN","1825 POST St #223",94115,37.785274,-122.431918,"(37.785274, -122.431918)",14155346260,"645_20180829","8/29/18",94,"645_20180829_103119","Inadequate and inaccessible handwashing facilities","Moderate Risk"
65725,"Le Meridien SF Park Grill Restaurant & Bar","333 Battery St Level 2 & 3",94111,37.799005,-122.399862,"(37.799005, -122.399862)",14155292904,"65725_20161108","11/8/16",92,"65725_20161108_103120","Moderate risk food holding temperature","Moderate Risk"
69368,"Onigilly","343 Kearny St",94108,37.791149,-122.404171,"(37.791149, -122.404171)",14155674706,"69368_20160505","5/5/16",86,"69368_20160505_103127","Noncompliance with HAACP plan or variance","Moderate Risk"
1619,"BENDERS BAR & GRILL","800-806 SOUTH VAN NESS Ave",94110,37.76031,-122.417123,"(37.76031, -122.417123)",14155558050,"1619_20160628","6/28/16",94,"1619_20160628_103124","Inadequately cleaned or sanitized food contact surfaces","Moderate Risk"
61816,"Bullitt","2209 Polk St",94109,37.797114,-122.422034,"(37.797114, -122.422034)",14155995053,"61816_20170508","5/8/17",80,"61816_20170508_103131","Moderate risk vermin infestation","Moderate Risk"
5843,"HOOVER MIDDLE SCHOOL","2290 14th Ave",94116,37.745374,-122.470308,"(37.745374, -122.470308)",14155752783,"5843_20160412","4/12/16",86,"5843_20160412_103124","Inadequately cleaned or sanitized food contact surfaces","Moderate Risk"
32671,"La Taqueria Guadalajara","3146 24th St",94110,37.752512,-122.415109,"(37.752512, -122.415109)",14155644892,"32671_20180508","5/8/18",75,"32671_20180508_103133","Foods not protected from contamination","Moderate Risk"
3621,"JIM'S RESTAURANT","2420 MISSION St",94110,37.758271,-122.419081,"(37.758271, -122.419081)",14155286020,"3621_20160908","9/8/16",92,"3621_20160908_103120","Moderate risk food holding temperature","Moderate Risk"
62578,"New Chef Hung's Restaurant","823 Clay St",94108,37.794193,-122.406677,"(37.794193, -122.406677)",14155396883,"62578_20171207","12/7/17",66,"62578_20171207_103124","Inadequately cleaned or sanitized food contact surfaces","Moderate Risk"
2638,"SF BAGEL CO. (KATZ BAGELS)","3147 16th St",94103,37.764814,-122.423089,"(37.764814, -122.423089)",14155559050,"2638_20180830","8/30/18",86,"2638_20180830_103131","Moderate risk vermin infestation","Moderate Risk"
62179,"Pampanguena Cuisine","4441 Mission St",94112,37.727111,-122.432926,"(37.727111, -122.432926)",14155588899,"62179_20160629","6/29/16",92,"62179_20160629_103132","Improper thawing methods","Moderate Risk"
70452,"Kennedy Market & Deli","4600 03rd St",94124,37.736301,-122.390293,"(37.736301, -122.390293)",14155285560,"70452_20151007","10/7/15",90,"70452_20151007_103119","Inadequate and inaccessible handwashing facilities","Moderate Risk"
300,"SUBWAY","2001 VAN NESS Ave",94109,37.794134,-122.423234,"(37.794134, -122.423234)",14155779929,"300_20171208","12/8/17",86,"300_20171208_103116","Inadequate food safety knowledge or lack of certified food safety manager","Moderate Risk"
62277,"Tacos San Buena","16th & Shotwell St",94102,37.779847,-122.418985,"(37.779847, -122.418985)",14155556127,"62277_20180221","2/21/18",87,"62277_20180221_103116","Inadequate food safety knowledge or lack of certified food safety manager","Moderate Risk"
62578,"New Chef Hung's Restaurant","823 Clay St",94108,37.794193,-122.406677,"(37.794193, -122.406677)",14155396883,"62578_20171207","12/7/17",66,"62578_20171207_103133","Foods not protected from contamination","Moderate Risk"
5813,"LICK MIDDLE SCHOOL","1220 Noe St",94114,37.74949,-122.43175,"(37.74949, -122.43175)",14155816139,"5813_20180226","2/26/18",94,"5813_20180226_103131","Moderate risk vermin infestation","Moderate Risk"
3868,"BARNEY'S","4138 24th St",94114,37.751268,-122.434992,"(37.751268, -122.434992)",14155287770,"3868_20180227","2/27/18",96,"3868_20180227_103124","Inadequately cleaned or sanitized food contact surfaces","Moderate Risk"
3895,"Cable Car Restaurant","1040 Columbus Ave",94133,37.803984,-122.415453,"(37.803984, -122.415453)",14155744455,"3895_20160217","2/17/16",78,"3895_20160217_103119","Inadequate and inaccessible handwashing facilities","Moderate Risk"
3838,"CAFE PICARO","3120 16th St",94103,37.764908,-122.422442,"(37.764908, -122.422442)",14155434089,"3838_20180222","2/22/18",72,"3838_20180222_103120","Moderate risk food holding temperature","Moderate Risk"
5843,"HOOVER MIDDLE SCHOOL","2290 14th Ave",94116,37.745374,-122.470308,"(37.745374, -122.470308)",14155752783,"5843_20160412","4/12/16",86,"5843_20160412_103131","Moderate risk vermin infestation","Moderate Risk"
1626,"LUPA TRATTORIA","4109 24th St",94114,37.751243,-122.434529,"(37.751243, -122.434529)",14155644664,"1626_20161003","10/3/16",92,"1626_20161003_103119","Inadequate and inaccessible handwashing facilities","Moderate Risk"
1154,"SUNFLOWER RESTAURANT","506 Valencia St",94103,37.764678,-122.421905,"(37.764678, -122.421905)",14155625023,"1154_20160912","9/12/16",76,"1154_20160912_103119","Inadequate and inaccessible handwashing facilities","Moderate Risk"
69769,"Whole Foods Market","1150 Ocean Ave",94112,37.723652,-122.45461,"(37.723652, -122.45461)",14155337400,"69769_20160628","6/28/16",90,"69769_20160628_103120","Moderate risk food holding temperature","Moderate Risk"
5838,"HARVEY MILK ELEMENTARY SCHOOL","4235 19th St",94114,37.759173,-122.436488,"(37.759173, -122.436488)",14155246276,"5838_20160316","3/16/16",90,"5838_20160316_103119","Inadequate and inaccessible handwashing facilities","Moderate Risk"
403,"HAAGEN-DAZS #561","865 MARKET St",94103,37.784317,-122.407563,"(37.784317, -122.407563)",14155891550,"403_20160701","7/1/16",81,"403_20160701_103119","Inadequate and inaccessible handwashing facilities","Moderate Risk"
7087,"VALENCIA FARMER'S MARKET","1299 VALENCIA St",94110,37.752162,-122.420585,"(37.752162, -122.420585)",14155286863,"7087_20160701","7/1/16",92,"7087_20160701_103119","Inadequate and inaccessible handwashing facilities","Moderate Risk"
70685,"5 Degree Tea House","2527 SAN BRUNO Ave",94134,37.729753,-122.40447,"(37.729753, -122.40447)",14155828233,"70685_20171212","12/12/17",86,"70685_20171212_103131","Moderate risk vermin infestation","Moderate Risk"
4789,"WHITCOMB  HOTEL- EMPLOYEES / BSMT CAFETERIA","1231 MARKET St",94103,37.778357,-122.415182,"(37.778357, -122.415182)",14155628000,"4789_20160630","6/30/16",88,"4789_20160630_103120","Moderate risk food holding temperature","Moderate Risk"
62578,"New Chef Hung's Restaurant","823 Clay St",94108,37.794193,-122.406677,"(37.794193, -122.406677)",14155396883,"62578_20171207","12/7/17",66,"62578_20171207_103131","Moderate risk vermin infestation","Moderate Risk"
1249,"KABABAYAN FAST FOOD","2706 MISSION St",94110,37.753691,-122.418657,"(37.753691, -122.418657)",14155929635,"1249_20180515","5/15/18",74,"1249_20180515_103131","Moderate risk vermin infestation","Moderate Risk"
2542,"PETER D'S RESTAURANT","2201 Van Ness St",94109,37.795993,-122.423585,"(37.795993, -122.423585)",14155778505,"2542_20171208","12/8/17",65,"2542_20171208_103124","Inadequately cleaned or sanitized food contact surfaces","Moderate Risk"
2315,"TAQUERIA CAN-CUN","2288 MISSION St",94110,37.760487,-122.419285,"(37.760487, -122.419285)",14155259560,"2315_20161207","12/7/16",88,"2315_20161207_103124","Inadequately cleaned or sanitized food contact surfaces","Moderate Risk"
1154,"SUNFLOWER RESTAURANT","506 Valencia St",94103,37.764678,-122.421905,"(37.764678, -122.421905)",14155625023,"1154_20160912","9/12/16",76,"1154_20160912_103133","Foods not protected from contamination","Moderate Risk"
2759,"CASA MEXICANA","180 CHURCH",94114,37.768127,-122.429024,"(37.768127, -122.429024)",14155802771,"2759_20180516","5/16/18",84,"2759_20180516_103120","Moderate risk food holding temperature","Moderate Risk"
5824,"S.F. International High School","1050 YORK St",94110,37.755257,-122.408455,"(37.755257, -122.408455)",14155695780,"5824_20180227","2/27/18",92,"5824_20180227_103120","Moderate risk food holding temperature","Moderate Risk"
187,"TAZA WRAPS & JUICE","750 FONT, BLDG B Blvd",94132,37.723054,-122.483612,"(37.723054, -122.483612)",14155374525,"187_20160511","5/11/16",89,"187_20160511_103120","Moderate risk food holding temperature","Moderate Risk"
69181,"Cha-Ya Restaurant","762 Valencia St",94110,37.760777,-122.421505,"(37.760777, -122.421505)",14155257825,"69181_20180719","7/19/18",89,"69181_20180719_103120","Moderate risk food holding temperature","Moderate Risk"
61816,"Bullitt","2209 Polk St",94109,37.797114,-122.422034,"(37.797114, -122.422034)",14155995053,"61816_20170508","5/8/17",80,"61816_20170508_103133","Foods not protected from contamination","Moderate Risk"
903,"Sabra Restaurant","419 Grant Ave",94108,37.790874,-122.405634,"(37.790874, -122.405634)",14155983656,"903_20160630","6/30/16",90,"903_20160630_103132","Improper thawing methods","Moderate Risk"
3895,"Cable Car Restaurant","1040 Columbus Ave",94133,37.803984,-122.415453,"(37.803984, -122.415453)",14155744455,"3895_20160217","2/17/16",78,"3895_20160217_103120","Moderate risk food holding temperature","Moderate Risk"
7636,"LEE'S FOOD MARKET","1397 Revere Ave",94124,37.729455,-122.386364,"(37.729455, -122.386364)",14155822818,"7636_20161019","10/19/16",81,"7636_20161019_103129","Insufficient hot water or running water","Moderate Risk"
4881,"STOP N SHOP","3000 Mission St",94110,37.748924,-122.418144,"(37.748924, -122.418144)",14155550905,"4881_20161021","10/21/16",90,"4881_20161021_103120","Moderate risk food holding temperature","Moderate Risk"
65086,"Bun Mee","2015 FILLMORE St",94115,37.788193,-122.433714,"(37.788193, -122.433714)",14155807696,"65086_20180905","9/5/18",88,"65086_20180905_103120","Moderate risk food holding temperature","Moderate Risk"
741,"MOZZARELLA DI BUFALA PIZZERIA II","069 WEST PORTAL Ave",94127,37.740052,-122.466544,"(37.740052, -122.466544)",14155668900,"741_20180222","2/22/18",94,"741_20180222_103121","Inadequate procedures or records for time as a public health control","Moderate Risk"
5952,"IMMACULATE CONCPTION ACADEMY","3625 24th St",94110,37.751923,-122.423558,"(37.751923, -122.423558)",14155822052,"5952_20160418","4/18/16",94,"5952_20160418_103121","Inadequate procedures or records for time as a public health control","Moderate Risk"
7636,"LEE'S FOOD MARKET","1397 Revere Ave",94124,37.729455,-122.386364,"(37.729455, -122.386364)",14155822818,"7636_20151027","10/27/15",81,"7636_20151027_103124","Inadequately cleaned or sanitized food contact surfaces","Moderate Risk"
61816,"Bullitt","2209 Polk St",94109,37.797114,-122.422034,"(37.797114, -122.422034)",14155995053,"61816_20170508","5/8/17",80,"61816_20170508_103124","Inadequately cleaned or sanitized food contact surfaces","Moderate Risk"
300,"SUBWAY","2001 VAN NESS Ave",94109,37.794134,-122.423234,"(37.794134, -122.423234)",14155779929,"300_20171208","12/8/17",86,"300_20171208_103120","Moderate risk food holding temperature","Moderate Risk"
69217,"Orexi Inc.","243 WEST PORTAL Ave",94127,37.738434,-122.468438,"(37.738434, -122.468438)",14155863810,"69217_20180830","8/30/18",92,"69217_20180830_103119","Inadequate and inaccessible handwashing facilities","Moderate Risk"
6030,"Woolf House Senior Center","801 Howard St . #413",94103,37.783037,-122.402952,"(37.783037, -122.402952)",14155677603,"6030_20160701","7/1/16",94,"6030_20160701_103119","Inadequate and inaccessible handwashing facilities","Moderate Risk"
6000,"Mission Neighborhood Centers","362 Capp St",94110,37.761007,-122.418215,"(37.761007, -122.418215)",14155207747,"6000_20160324","3/24/16",92,"6000_20160324_103120","Moderate risk food holding temperature","Moderate Risk"
70452,"Kennedy Market & Deli","4600 03rd St",94124,37.736301,-122.390293,"(37.736301, -122.390293)",14155285560,"70452_20180913","9/13/18",90,"70452_20180913_103119","Inadequate and inaccessible handwashing facilities","Moderate Risk"
4828,"SAY CHEESE","856 COLE St",94117,37.766017,-122.449976,"(37.766017, -122.449976)",14155665020,"4828_20171212","12/12/17",96,"4828_20171212_103120","Moderate risk food holding temperature","Moderate Risk"
7575,"SUPER MIRA","1790 SUTTER St",94115,37.786568,-122.429754,"(37.786568, -122.429754)",14155926529,"7575_20160603","6/3/16",90,"7575_20160603_103133","Foods not protected from contamination","Moderate Risk"
2483,"CAFE UNION","1830 UNION St",94123,37.797878,-122.429504,"(37.797878, -122.429504)",14155674119,"2483_20160907","9/7/16",96,"2483_20160907_103120","Moderate risk food holding temperature","Moderate Risk"
68773,"Nopalito","1224 9th Ave",94122,37.765412,-122.466375,"(37.765412, -122.466375)",14155430303,"68773_20180214","2/14/18",90,"68773_20180214_103118","Employee eating or smoking","Moderate Risk"
5853,"RAOUL WALLENBERG HIGH SCHOOL","40 VEGA St",94115,37.780133,-122.445864,"(37.780133, -122.445864)",14155743469,"5853_20180227","2/27/18",94,"5853_20180227_103131","Moderate risk vermin infestation","Moderate Risk"
3895,"Cable Car Restaurant","1040 Columbus Ave",94133,37.803984,-122.415453,"(37.803984, -122.415453)",14155744455,"3895_20160217","2/17/16",78,"3895_20160217_103124","Inadequately cleaned or sanitized food contact surfaces","Moderate Risk"
6025,"KIMOCHI INC","1840 SUTTER St 208",94115,37.786428,-122.430883,"(37.786428, -122.430883)",14155932294,"6025_20160426","4/26/16",96,"6025_20160426_103131","Moderate risk vermin infestation","Moderate Risk"
4481,"Bi Rite Market","3639 18th St",94110,37.761483,-122.424688,"(37.761483, -122.424688)",14155249760,"4481_20180913","9/13/18",89,"4481_20180913_103124","Inadequately cleaned or sanitized food contact surfaces","Moderate Risk"
63413,"Mymy","1500 California St",94109,37.790798,-122.419214,"(37.790798, -122.419214)",14155807466,"63413_20180522","5/22/18",90,"63413_20180522_103120","Moderate risk food holding temperature","Moderate Risk"
14005,"Yuyu Sushi","1559 A Sloat St",94132,37.733901,-122.490726,"(37.733901, -122.490726)",14155666477,"14005_20171205","12/5/17",90,"14005_20171205_103120","Moderate risk food holding temperature","Moderate Risk"
59002,"Yummy Bakery & Restaurant","607 Jackson St",94133,37.796152,-122.405255,"(37.796152, -122.405255)",14155988388,"59002_20160524","5/24/16",94,"59002_20160524_103124","Inadequately cleaned or sanitized food contact surfaces","Moderate Risk"
5830,"Theodore Roosevelt Middle School","460 Arguello Blvd",94118,37.782383,-122.458926,"(37.782383, -122.458926)",14155758446,"5830_20180907","9/7/18",96,"5830_20180907_103129","Insufficient hot water or running water","Moderate Risk"
3095,"Whitcomb Hotel Bar & Grill","1231 MARKET St",94103,37.778357,-122.415182,"(37.778357, -122.415182)",14155628000,"3095_20160630","6/30/16",85,"3095_20160630_103124","Inadequately cleaned or sanitized food contact surfaces","Moderate Risk"
5823,"WEBSTER ELEMENTARY SCHOOL","465 MISSOURI St",94107,37.760474,-122.396296,"(37.760474, -122.396296)",14155695787,"5823_20160322","3/22/16",92,"5823_20160322_103120","Moderate risk food holding temperature","Moderate Risk"
2369,"CLOONEY'S","1401 Valencia St",94110,37.750374,-122.420456,"(37.750374, -122.420456)",14155824988,"2369_20160324","3/24/16",86,"2369_20160324_103124","Inadequately cleaned or sanitized food contact surfaces","Moderate Risk"
1243,"JAVA SUPREME","0703 GUERRERO St",94110,37.759934,-122.423553,"(37.759934, -122.423553)",14155201832,"1243_20180522","5/22/18",94,"1243_20180522_103124","Inadequately cleaned or sanitized food contact surfaces","Moderate Risk"
2357,"CHINA EXPRESS","2798 MISSION St",94110,37.752408,-122.418535,"(37.752408, -122.418535)",14155640881,"2357_20180723","7/23/18",81,"2357_20180723_103133","Foods not protected from contamination","Moderate Risk"
5810,"DENMAN MIDDLE SCHOOL","241 ONEIDA St",94112,37.721825,-122.442876,"(37.721825, -122.442876)",14155464535,"5810_20160909","9/9/16",92,"5810_20160909_103120","Moderate risk food holding temperature","Moderate Risk"
25167,"Glaze Donuts","4499 Mission St A",94112,37.726402,-122.433476,"(37.726402, -122.433476)",14155331144,"25167_20161208","12/8/16",92,"25167_20161208_103120","Moderate risk food holding temperature","Moderate Risk"
10886,"Taste of Formosa","2428 CLEMENT ST",94121,37.782018,-122.485421,"(37.782018, -122.485421)",14155666368,"10886_20180906","9/6/18",88,"10886_20180906_103120","Moderate risk food holding temperature","Moderate Risk"
5010,"LATTE EXPRESS","48 05th St",94103,37.783225,-122.407252,"(37.783225, -122.407252)",14155287328,"5010_20160331","3/31/16",92,"5010_20160331_103119","Inadequate and inaccessible handwashing facilities","Moderate Risk"
4787,"TONY BALONEY'S","1098 HOWARD St",94103,37.778033,-122.40943,"(37.778033, -122.40943)",14155861514,"4787_20171002","10/2/17",86,"4787_20171002_103119","Inadequate and inaccessible handwashing facilities","Moderate Risk"
63413,"Mymy","1500 California St",94109,37.790798,-122.419214,"(37.790798, -122.419214)",14155807466,"63413_20160701","7/1/16",87,"63413_20160701_103120","Moderate risk food holding temperature","Moderate Risk"
7636,"LEE'S FOOD MARKET","1397 Revere Ave",94124,37.729455,-122.386364,"(37.729455, -122.386364)",14155822818,"7636_20161019","10/19/16",81,"7636_20161019_103119","Inadequate and inaccessible handwashing facilities","Moderate Risk"
4787,"TONY BALONEY'S","1098 HOWARD St",94103,37.778033,-122.40943,"(37.778033, -122.40943)",14155861514,"4787_20171002","10/2/17",86,"4787_20171002_103124","Inadequately cleaned or sanitized food contact surfaces","Moderate Risk"
32671,"La Taqueria Guadalajara","3146 24th St",94110,37.752512,-122.415109,"(37.752512, -122.415109)",14155644892,"32671_20170920","9/20/17",86,"32671_20170920_103120","Moderate risk food holding temperature","Moderate Risk"
6564,"HWA LEI MARKET","2970 A 16th St",94103,37.774722,-122.406761,"(37.774722, -122.406761)",14155861618,"6564_20180522","5/22/18",82,"6564_20180522_103124","Inadequately cleaned or sanitized food contact surfaces","Moderate Risk"
1931,"YUMMY YUMMY VIETNAMESE RESTAURANT","1015 IRVING St",94122,37.763913,-122.468809,"(37.763913, -122.468809)",14155564722,"1931_20180108","1/8/18",92,"1931_20180108_103133","Foods not protected from contamination","Moderate Risk"
69769,"Whole Foods Market","1150 Ocean Ave",94112,37.723652,-122.45461,"(37.723652, -122.45461)",14155337400,"69769_20180725","7/25/18",90,"69769_20180725_103120","Moderate risk food holding temperature","Moderate Risk"
1778,"Academy Bar & Kitchen","1800 Fillmore St",94115,37.786498,-122.430283,"(37.786498, -122.430283)",14155771800,"1778_20160906","9/6/16",94,"1778_20160906_103120","Moderate risk food holding temperature","Moderate Risk"
64938,"Xpress Market","498 O'Farrell St",94102,37.785861,-122.412954,"(37.785861, -122.412954)",14155923063,"64938_20180227","2/27/18",79,"64938_20180227_103118","Employee eating or smoking","Moderate Risk"
1154,"SUNFLOWER RESTAURANT","506 Valencia St",94103,37.764678,-122.421905,"(37.764678, -122.421905)",14155625023,"1154_20160912","9/12/16",76,"1154_20160912_103120","Moderate risk food holding temperature","Moderate Risk"
4789,"WHITCOMB  HOTEL- EMPLOYEES / BSMT CAFETERIA","1231 MARKET St",94103,37.778357,-122.415182,"(37.778357, -122.415182)",14155628000,"4789_20160630","6/30/16",88,"4789_20160630_103124","Inadequately cleaned or sanitized food contact surfaces","Moderate Risk"
7747,"SAFEWAY STORE #964","4950 Mission St",94112,37.71954,-122.438775,"(37.71954, -122.438775)",14155587200,"7747_20160609","6/9/16",81,"7747_20160609_103119","Inadequate and inaccessible handwashing facilities","Moderate Risk"
1724,"CAFE MUMS","1800 SUTTER St",94115,37.786498,-122.430283,"(37.786498, -122.430283)",14155936986,"1724_20160309","3/9/16",86,"1724_20160309_103131","Moderate risk vermin infestation","Moderate Risk"
5810,"DENMAN MIDDLE SCHOOL","241 ONEIDA St",94112,37.721825,-122.442876,"(37.721825, -122.442876)",14155464535,"5810_20160909","9/9/16",92,"5810_20160909_103129","Insufficient hot water or running water","Moderate Risk"
25167,"Glaze Donuts","4499 Mission St A",94112,37.726402,-122.433476,"(37.726402, -122.433476)",14155331144,"25167_20161208","12/8/16",92,"25167_20161208_103133","Foods not protected from contamination","Moderate Risk"
7575,"SUPER MIRA","1790 SUTTER St",94115,37.786568,-122.429754,"(37.786568, -122.429754)",14155926529,"7575_20160603","6/3/16",90,"7575_20160603_103120","Moderate risk food holding temperature","Moderate Risk"
5950,"LICK-WILMERDING HIGH SCHOOL","755 OCEAN Ave",94112,37.722933,-122.448971,"(37.722933, -122.448971)",14155334021,"5950_20160419","4/19/16",86,"5950_20160419_103120","Moderate risk food holding temperature","Moderate Risk"
2980,"PUERTO ALEGRE","546 Valencia St",94110,37.764148,-122.421855,"(37.764148, -122.421855)",14155258201,"2980_20161024","10/24/16",89,"2980_20161024_103116","Inadequate food safety knowledge or lack of certified food safety manager","Moderate Risk"
3630,"MAD DOG IN THE FOG","530 HAIGHT St",94117,37.772097,-122.430814,"(37.772097, -122.430814)",14155627279,"3630_20160630","6/30/16",90,"3630_20160630_103120","Moderate risk food holding temperature","Moderate Risk"
1595,"Zazie","941 COLE St",94117,37.765343,-122.449914,"(37.765343, -122.449914)",14155565332,"1595_20171214","12/14/17",92,"1595_20171214_103120","Moderate risk food holding temperature","Moderate Risk"
5156,"McDONALD'S","302 POTRERO Ave",94110,37.765507,-122.407565,"(37.765507, -122.407565)",14155863295,"5156_20161024","10/24/16",84,"5156_20161024_103124","Inadequately cleaned or sanitized food contact surfaces","Moderate Risk"
10332,"Harvest Urban Market","191 08th St",94103,37.776384,-122.411684,"(37.776384, -122.411684)",14155620805,"10332_20171002","10/2/17",79,"10332_20171002_103133","Foods not protected from contamination","Moderate Risk"
5813,"LICK MIDDLE SCHOOL","1220 Noe St",94114,37.74949,-122.43175,"(37.74949, -122.43175)",14155816139,"5813_20171002","10/2/17",96,"5813_20171002_103119","Inadequate and inaccessible handwashing facilities","Moderate Risk"
1154,"SUNFLOWER RESTAURANT","506 Valencia St",94103,37.764678,-122.421905,"(37.764678, -122.421905)",14155625023,"1154_20160912","9/12/16",76,"1154_20160912_103132","Improper thawing methods","Moderate Risk"
4850,"COOL GUYS","845 Holloway Ave",94112,37.721794,-122.461991,"(37.721794, -122.461991)",14155451404,"4850_20160419","4/19/16",96,"4850_20160419_103118","Employee eating or smoking","Moderate Risk"
14005,"Yuyu Sushi","1559 A Sloat St",94132,37.733901,-122.490726,"(37.733901, -122.490726)",14155666477,"14005_20160513","5/13/16",92,"14005_20160513_103124","Inadequately cleaned or sanitized food contact surfaces","Moderate Risk"
1075,"SANDWICH PLACE, THE","2029 MISSION St",94110,37.764384,-122.419566,"(37.764384, -122.419566)",14155433811,"1075_20160309","3/9/16",90,"1075_20160309_103116","Inadequate food safety knowledge or lack of certified food safety manager","Moderate Risk"
2357,"CHINA EXPRESS","2798 MISSION St",94110,37.752408,-122.418535,"(37.752408, -122.418535)",14155640881,"2357_20151230","12/30/15",70,"2357_20151230_103121","Inadequate procedures or records for time as a public health control","Moderate Risk"
1081,"ARINELL PIZZA","509 VALENCIA St",94110,37.764744,-122.421803,"(37.764744, -122.421803)",14155251303,"1081_20180523","5/23/18",94,"1081_20180523_103124","Inadequately cleaned or sanitized food contact surfaces","Moderate Risk"
63893,"Marina Sushi Bar","2020 LOMBARD St",94123,37.800028,-122.434864,"(37.800028, -122.434864)",14155332767,"63893_20180517","5/17/18",88,"63893_20180517_103124","Inadequately cleaned or sanitized food contact surfaces","Moderate Risk"
4874,"JUMP START COFFEE & GROCERY","1192 GUERRERO St",94110,37.752118,-122.422914,"(37.752118, -122.422914)",14155647555,"4874_20180306","3/6/18",86,"4874_20180306_103120","Moderate risk food holding temperature","Moderate Risk"
33467,"California Pizza Kitchen, Inc.","53 03rd St",94103,37.78678,-122.402535,"(37.78678, -122.402535)",14150345000,"33467_20180103","1/3/18",94,"33467_20180103_103120","Moderate risk food holding temperature","Moderate Risk"
2455,"MUDDY WATERS","521 VALENCIA St",94110,37.764484,-122.421815,"(37.764484, -122.421815)",14155868006,"2455_20171003","10/3/17",92,"2455_20171003_103120","Moderate risk food holding temperature","Moderate Risk"
5853,"RAOUL WALLENBERG HIGH SCHOOL","40 VEGA St",94115,37.780133,-122.445864,"(37.780133, -122.445864)",14155743469,"5853_20180912","9/12/18",94,"5853_20180912_103131","Moderate risk vermin infestation","Moderate Risk"
1949,"PLUTO'S","627 IRVING St",94122,37.764083,-122.46471,"(37.764083, -122.46471)",14155758867,"1949_20180305","3/5/18",89,"1949_20180305_103133","Foods not protected from contamination","Moderate Risk"
62060,"Cozy Cable Car Cafe","519 Powell St",94108,37.789521,-122.408736,"(37.789521, -122.408736)",14155983097,"62060_20160523","5/23/16",96,"62060_20160523_103120","Moderate risk food holding temperature","Moderate Risk"
5926,"SAN FRANCISCO SCHOOL, THE","300 GAVEN St",94134,37.732518,-122.411648,"(37.732518, -122.411648)",14155235065,"5926_20170927","9/27/17",96,"5926_20170927_103124","Inadequately cleaned or sanitized food contact surfaces","Moderate Risk"
2406,"THEP-PHANON RESTAURANT","400 WALLER St",94117,37.77124,-122.430299,"(37.77124, -122.430299)",14155432526,"2406_20180301","3/1/18",85,"2406_20180301_103116","Inadequate food safety knowledge or lack of certified food safety manager","Moderate Risk"
63893,"Marina Sushi Bar","2020 LOMBARD St",94123,37.800028,-122.434864,"(37.800028, -122.434864)",14155332767,"63893_20180517","5/17/18",88,"63893_20180517_103119","Inadequate and inaccessible handwashing facilities","Moderate Risk"
7479,"RJ's Market","1425 Sansome St",94111,37.803634,-122.403285,"(37.803634, -122.403285)",14155397160,"7479_20161128","11/28/16",88,"7479_20161128_103119","Inadequate and inaccessible handwashing facilities","Moderate Risk"
2357,"CHINA EXPRESS","2798 MISSION St",94110,37.752408,-122.418535,"(37.752408, -122.418535)",14155640881,"2357_20151230","12/30/15",70,"2357_20151230_103116","Inadequate food safety knowledge or lack of certified food safety manager","Moderate Risk"
6032,"FRANCIS OF ASSISI SENIOR MEALS PROG","145 Guerrero St",94103,37.768904,-122.424466,"(37.768904, -122.424466)",14155865790,"6032_20160912","9/12/16",96,"6032_20160912_103133","Foods not protected from contamination","Moderate Risk"
5859,"BURTON HIGH SCHOOL","400 MANSELL St",94134,37.720656,-122.405108,"(37.720656, -122.405108)",14155464570,"5859_20170927","9/27/17",94,"5859_20170927_103119","Inadequate and inaccessible handwashing facilities","Moderate Risk"
37090,"Basil Canteen","1489 FOLSOM St",94103,37.772008,-122.413803,"(37.772008, -122.413803)",14155553963,"37090_20180521","5/21/18",86,"37090_20180521_103131","Moderate risk vermin infestation","Moderate Risk"
3895,"Cable Car Restaurant","1040 Columbus Ave",94133,37.803984,-122.415453,"(37.803984, -122.415453)",14155744455,"3895_20160217","2/17/16",78,"3895_20160217_103132","Improper thawing methods","Moderate Risk"
1154,"SUNFLOWER RESTAURANT","506 Valencia St",94103,37.764678,-122.421905,"(37.764678, -122.421905)",14155625023,"1154_20160912","9/12/16",76,"1154_20160912_103124","Inadequately cleaned or sanitized food contact surfaces","Moderate Risk"
619,"A-1 BAKERY","1727 OCEAN Ave",94112,37.724824,-122.460726,"(37.724824, -122.460726)",14155586923,"619_20170929","9/29/17",90,"619_20170929_103121","Inadequate procedures or records for time as a public health control","Moderate Risk"
305,"PACIFIC CATCH","2027 CHESTNUT St",94123,37.800763,-122.436536,"(37.800763, -122.436536)",14155441950,"305_20160518","5/18/16",87,"305_20160518_103124","Inadequately cleaned or sanitized food contact surfaces","Moderate Risk"
32671,"La Taqueria Guadalajara","3146 24th St",94110,37.752512,-122.415109,"(37.752512, -122.415109)",14155644892,"32671_20160629","6/29/16",84,"32671_20160629_103120","Moderate risk food holding temperature","Moderate Risk"
3895,"Cable Car Restaurant","1040 Columbus Ave",94133,37.803984,-122.415453,"(37.803984, -122.415453)",14155744455,"3895_20160217","2/17/16",78,"3895_20160217_103130","Inadequate sewage or wastewater disposal","Moderate Risk"
7479,"RJ's Market","1425 Sansome St",94111,37.803634,-122.403285,"(37.803634, -122.403285)",14155397160,"7479_20161128","11/28/16",88,"7479_20161128_103116","Inadequate food safety knowledge or lack of certified food safety manager","Moderate Risk"
2421,"ST FRANCIS FOUNTAIN","2801 24th St",94110,37.752833,-122.408349,"(37.752833, -122.408349)",14155824200,"2421_20160120","1/20/16",85,"2421_20160120_103120","Moderate risk food holding temperature","Moderate Risk"
5849,"NEW TRADITIONS ALTERNATIVE SCHOOL","2049 GROVE St",94117,37.774333,-122.450327,"(37.774333, -122.450327)",14155758490,"5849_20161025","10/25/16",96,"5849_20161025_103129","Insufficient hot water or running water","Moderate Risk"
2132,"B & M MEI SING RESTAURANT","62 02nd St",94105,37.788453,-122.400466,"(37.788453, -122.400466)",14155772888,"2132_20170928","9/28/17",85,"2132_20170928_103124","Inadequately cleaned or sanitized food contact surfaces","Moderate Risk"
1081,"ARINELL PIZZA","509 VALENCIA St",94110,37.764744,-122.421803,"(37.764744, -122.421803)",14155251303,"1081_20160222","2/22/16",84,"1081_20160222_103131","Moderate risk vermin infestation","Moderate Risk"
3630,"MAD DOG IN THE FOG","530 HAIGHT St",94117,37.772097,-122.430814,"(37.772097, -122.430814)",14155627279,"3630_20160630","6/30/16",90,"3630_20160630_103124","Inadequately cleaned or sanitized food contact surfaces","Moderate Risk"
26149,"Mrs. Fields Cookies","865 Market St 9000",94103,37.784317,-122.407563,"(37.784317, -122.407563)",14155971993,"26149_20160701","7/1/16",80,"26149_20160701_103129","Insufficient hot water or running water","Moderate Risk"
1081,"ARINELL PIZZA","509 VALENCIA St",94110,37.764744,-122.421803,"(37.764744, -122.421803)",14155251303,"1081_20160222","2/22/16",84,"1081_20160222_103124","Inadequately cleaned or sanitized food contact surfaces","Moderate Risk"
69368,"Onigilly","343 Kearny St",94108,37.791149,-122.404171,"(37.791149, -122.404171)",14155674706,"69368_20160505","5/5/16",86,"69368_20160505_103120","Moderate risk food holding temperature","Moderate Risk"
28206,"Westfield Food Court Scullery","845 Market St Scullery (LL)",94103,37.784679,-122.407061,"(37.784679, -122.407061)",14155516776,"28206_20180305","3/5/18",90,"28206_20180305_103119","Inadequate and inaccessible handwashing facilities","Moderate Risk"
70452,"Kennedy Market & Deli","4600 03rd St",94124,37.736301,-122.390293,"(37.736301, -122.390293)",14155285560,"70452_20180913","9/13/18",90,"70452_20180913_103124","Inadequately cleaned or sanitized food contact surfaces","Moderate Risk"
61953,"Allstars Donuts & Burgers","290 GOLDEN GATE Ave",94102,37.781697,-122.415334,"(37.781697, -122.415334)",14155905399,"61953_20160609","6/9/16",92,"61953_20160609_103131","Moderate risk vermin infestation","Moderate Risk"
2973,"KOH SAMUI & THE MONKEY","415 BRANNAN St",94107,37.779777,-122.394673,"(37.779777, -122.394673)",14155579885,"2973_20180523","5/23/18",88,"2973_20180523_103133","Foods not protected from contamination","Moderate Risk"
10332,"Harvest Urban Market","191 08th St",94103,37.776384,-122.411684,"(37.776384, -122.411684)",14155620805,"10332_20171002","10/2/17",79,"10332_20171002_103120","Moderate risk food holding temperature","Moderate Risk"
61953,"Allstars Donuts & Burgers","290 GOLDEN GATE Ave",94102,37.781697,-122.415334,"(37.781697, -122.415334)",14155905399,"61953_20160609","6/9/16",92,"61953_20160609_103120","Moderate risk food holding temperature","Moderate Risk"
1296,"TAQUERIA EL BUEN SABOR","699 VALENCIA St",94112,37.761743,-122.421492,"(37.761743, -122.421492)",14155588745,"1296_20160209","2/9/16",80,"1296_20160209_103120","Moderate risk food holding temperature","Moderate Risk"
2315,"TAQUERIA CAN-CUN","2288 MISSION St",94110,37.760487,-122.419285,"(37.760487, -122.419285)",14155259560,"2315_20180917","9/17/18",81,"2315_20180917_103119","Inadequate and inaccessible handwashing facilities","Moderate Risk"
70838,"Trattoria Da Vittorio","150 WEST PORTAL Ave",94127,37.739223,-122.46766,"(37.739223, -122.46766)",14150507976,"70838_20160610","6/10/16",88,"70838_20160610_103120","Moderate risk food holding temperature","Moderate Risk"
320,"NAPOLI PIZZA RESTAURANT","1045 POLK St",94109,37.786545,-122.419894,"(37.786545, -122.419894)",14155882222,"320_20171004","10/4/17",77,"320_20171004_103129","Insufficient hot water or running water","Moderate Risk"
1724,"CAFE MUMS","1800 SUTTER St",94115,37.786498,-122.430283,"(37.786498, -122.430283)",14155936986,"1724_20160309","3/9/16",86,"1724_20160309_103120","Moderate risk food holding temperature","Moderate Risk"
35199,"Pho #1","2571 SAN BRUNO Ave",94134,37.729254,-122.40426,"(37.729254, -122.40426)",14155339289,"35199_20160610","6/10/16",88,"35199_20160610_103133","Foods not protected from contamination","Moderate Risk"
2893,"FOREIGN CINEMA","2534 MISSION St",94110,37.756417,-122.418884,"(37.756417, -122.418884)",14155417600,"2893_20160705","7/5/16",80,"2893_20160705_103116","Inadequate food safety knowledge or lack of certified food safety manager","Moderate Risk"
37820,"Natural Sensations","1650 HOLLOWAY St #134",94132,37.720894,-122.478029,"(37.720894, -122.478029)",14155238257,"37820_20161110","11/10/16",94,"37820_20161110_103120","Moderate risk food holding temperature","Moderate Risk"
3280,"HARRY'S BAR","2020 FILLMORE St",94115,37.788307,-122.433667,"(37.788307, -122.433667)",14155921000,"3280_20160913","9/13/16",88,"3280_20160913_103119","Inadequate and inaccessible handwashing facilities","Moderate Risk"
379,"GIANT SCOOP","2708 SAN BRUNO Ave",94134,37.727468,-122.403582,"(37.727468, -122.403582)",14155465051,"379_20160610","6/10/16",74,"379_20160610_103119","Inadequate and inaccessible handwashing facilities","Moderate Risk"
2893,"FOREIGN CINEMA","2534 MISSION St",94110,37.756417,-122.418884,"(37.756417, -122.418884)",14155417600,"2893_20160705","7/5/16",80,"2893_20160705_103125","Noncompliance with shell fish tags or display","Moderate Risk"
2893,"FOREIGN CINEMA","2534 MISSION St",94110,37.756417,-122.418884,"(37.756417, -122.418884)",14155417600,"2893_20160705","7/5/16",80,"2893_20160705_103120","Moderate risk food holding temperature","Moderate Risk"
591,"YOU SEE SUSHI","94 JUDAH St",94122,37.762378,-122.462692,"(37.762378, -122.462692)",14155684010,"591_20160615","6/15/16",83,"591_20160615_103120","Moderate risk food holding temperature","Moderate Risk"
69475,"La Corneta, Inc","2834 Diamond St",94131,37.734012,-122.434072,"(37.734012, -122.434072)",14155468757,"69475_20160817","8/17/16",94,"69475_20160817_103120","Moderate risk food holding temperature","Moderate Risk"
64379,"Piccadilly Fish & Chips","1348 Polk St",94109,37.789299,-122.420352,"(37.789299, -122.420352)",14155776477,"64379_20151222","12/22/15",94,"64379_20151222_103119","Inadequate and inaccessible handwashing facilities","Moderate Risk"
5156,"McDONALD'S","302 POTRERO Ave",94110,37.765507,-122.407565,"(37.765507, -122.407565)",14155863295,"5156_20161024","10/24/16",84,"5156_20161024_103119","Inadequate and inaccessible handwashing facilities","Moderate Risk"
5866,"KING ELEMENTARY SCHOOL","1215 CAROLINA St",94107,37.753196,-122.39939,"(37.753196, -122.39939)",14155695797,"5866_20171002","10/2/17",96,"5866_20171002_103119","Inadequate and inaccessible handwashing facilities","Moderate Risk"
3394,"The Keystone","68 04th St",94103,37.784915,-122.404832,"(37.784915, -122.404832)",14155984400,"3394_20160419","4/19/16",90,"3394_20160419_103127","Noncompliance with HAACP plan or variance","Moderate Risk"
36208,"Silver Cafe","4300 MISSION St",94112,37.728582,-122.431482,"(37.728582, -122.431482)",14155583237,"36208_20160513","5/13/16",84,"36208_20160513_103124","Inadequately cleaned or sanitized food contact surfaces","Moderate Risk"
18800,"7-Mission Restaurant","150 07th St",94103,37.778547,-122.41013,"(37.778547, -122.41013)",14155863298,"18800_20160309","3/9/16",86,"18800_20160309_103132","Improper thawing methods","Moderate Risk"
63413,"Mymy","1500 California St",94109,37.790798,-122.419214,"(37.790798, -122.419214)",14155807466,"63413_20180522","5/22/18",90,"63413_20180522_103130","Inadequate sewage or wastewater disposal","Moderate Risk"
14005,"Yuyu Sushi","1559 A Sloat St",94132,37.733901,-122.490726,"(37.733901, -122.490726)",14155666477,"14005_20160513","5/13/16",92,"14005_20160513_103119","Inadequate and inaccessible handwashing facilities","Moderate Risk"
2315,"TAQUERIA CAN-CUN","2288 MISSION St",94110,37.760487,-122.419285,"(37.760487, -122.419285)",14155259560,"2315_20180917","9/17/18",81,"2315_20180917_103132","Improper thawing methods","Moderate Risk"
7636,"LEE'S FOOD MARKET","1397 Revere Ave",94124,37.729455,-122.386364,"(37.729455, -122.386364)",14155822818,"7636_20151027","10/27/15",81,"7636_20151027_103119","Inadequate and inaccessible handwashing facilities","Moderate Risk"
5156,"McDONALD'S","302 POTRERO Ave",94110,37.765507,-122.407565,"(37.765507, -122.407565)",14155863295,"5156_20161024","10/24/16",84,"5156_20161024_103129","Insufficient hot water or running water","Moderate Risk"
5844,"CLARENDON ELEMENTARY SCHOOL","500 CLARENDON Ave",94131,37.751552,-122.456517,"(37.751552, -122.456517)",14155752796,"5844_20180228","2/28/18",96,"5844_20180228_103122","Reservice of previously served foods","Moderate Risk"
63893,"Marina Sushi Bar","2020 LOMBARD St",94123,37.800028,-122.434864,"(37.800028, -122.434864)",14155332767,"63893_20180517","5/17/18",88,"63893_20180517_103129","Insufficient hot water or running water","Moderate Risk"
1262,"NORTH BEACH PIZZA","800 STANYAN St",94117,37.767286,-122.453075,"(37.767286, -122.453075)",14155752300,"1262_20171215","12/15/17",90,"1262_20171215_103120","Moderate risk food holding temperature","Moderate Risk"
69282,"New Jumbo Seafood Restaurant","1532 NORIEGA St",94122,37.754132,-122.480058,"(37.754132, -122.480058)",14155681800,"69282_20161003","10/3/16",83,"69282_20161003_103119","Inadequate and inaccessible handwashing facilities","Moderate Risk"
3948,"Mel's Drive-In","833 MISSION St",94103,37.78355,-122.405356,"(37.78355, -122.405356)",14155220793,"3948_20160328","3/28/16",90,"3948_20160328_103133","Foods not protected from contamination","Moderate Risk"
69282,"New Jumbo Seafood Restaurant","1532 NORIEGA St",94122,37.754132,-122.480058,"(37.754132, -122.480058)",14155681800,"69282_20161003","10/3/16",83,"69282_20161003_103131","Moderate risk vermin infestation","Moderate Risk"
3819,"SAFEWAY #667","5290 DIAMOND HEIGHTS Blvd",94131,37.744076,-122.438684,"(37.744076, -122.438684)",14155827744,"3819_20180918","9/18/18",96,"3819_20180918_103120","Moderate risk food holding temperature","Moderate Risk"
18800,"7-Mission Restaurant","150 07th St",94103,37.778547,-122.41013,"(37.778547, -122.41013)",14155863298,"18800_20160913","9/13/16",81,"18800_20160913_103124","Inadequately cleaned or sanitized food contact surfaces","Moderate Risk"
3870,"LA ALTENA","3346 MISSION St",94110,37.743206,-122.421546,"(37.743206, -122.421546)",14155648415,"3870_20160608","6/8/16",79,"3870_20160608_103116","Inadequate food safety knowledge or lack of certified food safety manager","Moderate Risk"
7479,"RJ's Market","1425 Sansome St",94111,37.803634,-122.403285,"(37.803634, -122.403285)",14155397160,"7479_20161128","11/28/16",88,"7479_20161128_103120","Moderate risk food holding temperature","Moderate Risk"
71287,"Glaze Teriyaki","1946 FILLMORE St",94115,37.787778,-122.433557,"(37.787778, -122.433557)",14155779878,"71287_20160912","9/12/16",82,"71287_20160912_103119","Inadequate and inaccessible handwashing facilities","Moderate Risk"
3868,"BARNEY'S","4138 24th St",94114,37.751268,-122.434992,"(37.751268, -122.434992)",14155287770,"3868_20160308","3/8/16",96,"3868_20160308_103120","Moderate risk food holding temperature","Moderate Risk"
151,"BUS STOP PIZZA #1","256 Divisadero St",94117,37.771487,-122.437047,"(37.771487, -122.437047)",14155629119,"151_20180514","5/14/18",81,"151_20180514_103129","Insufficient hot water or running water","Moderate Risk"
32671,"La Taqueria Guadalajara","3146 24th St",94110,37.752512,-122.415109,"(37.752512, -122.415109)",14155644892,"32671_20170920","9/20/17",86,"32671_20170920_103131","Moderate risk vermin infestation","Moderate Risk"
71168,"Mangrove Kitchen","312 DIVISADERO St",94117,37.772458,-122.437247,"(37.772458, -122.437247)",14155795454,"71168_20151020","10/20/15",65,"71168_20151020_103116","Inadequate food safety knowledge or lack of certified food safety manager","Moderate Risk"
18800,"7-Mission Restaurant","150 07th St",94103,37.778547,-122.41013,"(37.778547, -122.41013)",14155863298,"18800_20160913","9/13/16",81,"18800_20160913_103133","Foods not protected from contamination","Moderate Risk"
5817,"LAKESHORE ELEMENTARY SCHOOL","220 MIDDLEFIELD Dr",94132,37.730637,-122.4861,"(37.730637, -122.4861)",14155752825,"5817_20171003","10/3/17",94,"5817_20171003_103120","Moderate risk food holding temperature","Moderate Risk"
64938,"Xpress Market","498 O'Farrell St",94102,37.785861,-122.412954,"(37.785861, -122.412954)",14155923063,"64938_20180227","2/27/18",79,"64938_20180227_103116","Inadequate food safety knowledge or lack of certified food safety manager","Moderate Risk"
3280,"HARRY'S BAR","2020 FILLMORE St",94115,37.788307,-122.433667,"(37.788307, -122.433667)",14155921000,"3280_20160913","9/13/16",88,"3280_20160913_103133","Foods not protected from contamination","Moderate Risk"
379,"GIANT SCOOP","2708 SAN BRUNO Ave",94134,37.727468,-122.403582,"(37.727468, -122.403582)",14155465051,"379_20160610","6/10/16",74,"379_20160610_103124","Inadequately cleaned or sanitized food contact surfaces","Moderate Risk"
1926,"LINCOLN PARK BAR AND GRILL","300 34th Ave",94121,37.782971,-122.496324,"(37.782971, -122.496324)",14155222254,"1926_20160203","2/3/16",82,"1926_20160203_103119","Inadequate and inaccessible handwashing facilities","Moderate Risk"
36208,"Silver Cafe","4300 MISSION St",94112,37.728582,-122.431482,"(37.728582, -122.431482)",14155583237,"36208_20160513","5/13/16",84,"36208_20160513_103131","Moderate risk vermin infestation","Moderate Risk"
35199,"Pho #1","2571 SAN BRUNO Ave",94134,37.729254,-122.40426,"(37.729254, -122.40426)",14155339289,"35199_20160610","6/10/16",88,"35199_20160610_103124","Inadequately cleaned or sanitized food contact surfaces","Moderate Risk"
3870,"LA ALTENA","3346 MISSION St",94110,37.743206,-122.421546,"(37.743206, -122.421546)",14155648415,"3870_20160608","6/8/16",79,"3870_20160608_103131","Moderate risk vermin infestation","Moderate Risk"
151,"BUS STOP PIZZA #1","256 Divisadero St",94117,37.771487,-122.437047,"(37.771487, -122.437047)",14155629119,"151_20180514","5/14/18",81,"151_20180514_103120","Moderate risk food holding temperature","Moderate Risk"
5786,"UNION STREET INN","2229 UNION St",94123,37.796977,-122.435968,"(37.796977, -122.435968)",14155340424,"5786_20171003","10/3/17",94,"5786_20171003_103133","Foods not protected from contamination","Moderate Risk"
741,"MOZZARELLA DI BUFALA PIZZERIA II","069 WEST PORTAL Ave",94127,37.740052,-122.466544,"(37.740052, -122.466544)",14155668900,"741_20160610","6/10/16",83,"741_20160610_103124","Inadequately cleaned or sanitized food contact surfaces","Moderate Risk"
2031,"KENMORE RESIDENCE CLUB","1570 SUTTER St",94109,37.787017,-122.426234,"(37.787017, -122.426234)",14155775815,"2031_20160318","3/18/16",88,"2031_20160318_103119","Inadequate and inaccessible handwashing facilities","Moderate Risk"
610,"POMELO","92 JUDAH St",94122,37.762378,-122.462692,"(37.762378, -122.462692)",14155736175,"610_20160819","8/19/16",94,"610_20160819_103120","Moderate risk food holding temperature","Moderate Risk"
70838,"Trattoria Da Vittorio","150 WEST PORTAL Ave",94127,37.739223,-122.46766,"(37.739223, -122.46766)",14150507976,"70838_20160610","6/10/16",88,"70838_20160610_103119","Inadequate and inaccessible handwashing facilities","Moderate Risk"
320,"NAPOLI PIZZA RESTAURANT","1045 POLK St",94109,37.786545,-122.419894,"(37.786545, -122.419894)",14155882222,"320_20171004","10/4/17",77,"320_20171004_103119","Inadequate and inaccessible handwashing facilities","Moderate Risk"
63493,"The Golden West","8 Trinity Pl",94104,37.790053,-122.402586,"(37.790053, -122.402586)",14155270896,"63493_20151222","12/22/15",83,"63493_20151222_103131","Moderate risk vermin infestation","Moderate Risk"
3870,"LA ALTENA","3346 MISSION St",94110,37.743206,-122.421546,"(37.743206, -122.421546)",14155648415,"3870_20160608","6/8/16",79,"3870_20160608_103120","Moderate risk food holding temperature","Moderate Risk"
741,"MOZZARELLA DI BUFALA PIZZERIA II","069 WEST PORTAL Ave",94127,37.740052,-122.466544,"(37.740052, -122.466544)",14155668900,"741_20160610","6/10/16",83,"741_20160610_103120","Moderate risk food holding temperature","Moderate Risk"
18800,"7-Mission Restaurant","150 07th St",94103,37.778547,-122.41013,"(37.778547, -122.41013)",14155863298,"18800_20160309","3/9/16",86,"18800_20160309_103133","Foods not protected from contamination","Moderate Risk"
71909,"Shanghai Dumpling King 2","696 Monterey Blvd",94127,37.731568,-122.45097,"(37.731568, -122.45097)",14155232380,"71909_20161005","10/5/16",86,"71909_20161005_103132","Improper thawing methods","Moderate Risk"
18800,"7-Mission Restaurant","150 07th St",94103,37.778547,-122.41013,"(37.778547, -122.41013)",14155863298,"18800_20171213","12/13/17",92,"18800_20171213_103132","Improper thawing methods","Moderate Risk"
6564,"HWA LEI MARKET","2970 A 16th St",94103,37.774722,-122.406761,"(37.774722, -122.406761)",14155861618,"6564_20180522","5/22/18",82,"6564_20180522_103131","Moderate risk vermin infestation","Moderate Risk"
3280,"HARRY'S BAR","2020 FILLMORE St",94115,37.788307,-122.433667,"(37.788307, -122.433667)",14155921000,"3280_20160913","9/13/16",88,"3280_20160913_103131","Moderate risk vermin infestation","Moderate Risk"
36208,"Silver Cafe","4300 MISSION St",94112,37.728582,-122.431482,"(37.728582, -122.431482)",14155583237,"36208_20160513","5/13/16",84,"36208_20160513_103133","Foods not protected from contamination","Moderate Risk"
2358,"TAQUERIA SAN JOSE #1","2830 MISSION St",94110,37.751687,-122.418455,"(37.751687, -122.418455)",14155280203,"2358_20180918","9/18/18",87,"2358_20180918_103118","Employee eating or smoking","Moderate Risk"
21583,"Cafe Royale","800 Post St",94109,37.787448,-122.415243,"(37.787448, -122.415243)",14159444099,"21583_20171003","10/3/17",96,"21583_20171003_103124","Inadequately cleaned or sanitized food contact surfaces","Moderate Risk"
6564,"HWA LEI MARKET","2970 A 16th St",94103,37.774722,-122.406761,"(37.774722, -122.406761)",14155861618,"6564_20180522","5/22/18",82,"6564_20180522_103116","Inadequate food safety knowledge or lack of certified food safety manager","Moderate Risk"
7646,"VALENCIA GROCERY","1300 VALENCIA St",94110,37.752059,-122.420713,"(37.752059, -122.420713)",14155646071,"7646_20161025","10/25/16",94,"7646_20161025_103120","Moderate risk food holding temperature","Moderate Risk"
71909,"Shanghai Dumpling King 2","696 Monterey Blvd",94127,37.731568,-122.45097,"(37.731568, -122.45097)",14155232380,"71909_20161005","10/5/16",86,"71909_20161005_103133","Foods not protected from contamination","Moderate Risk"
2690,"LOS PANCHOS","3206 MISSION St",94110,37.745516,-122.420004,"(37.745516, -122.420004)",14155281033,"2690_20180522","5/22/18",89,"2690_20180522_103120","Moderate risk food holding temperature","Moderate Risk"
5866,"KING ELEMENTARY SCHOOL","1215 CAROLINA St",94107,37.753196,-122.39939,"(37.753196, -122.39939)",14155695797,"5866_20160407","4/7/16",96,"5866_20160407_103120","Moderate risk food holding temperature","Moderate Risk"
61736,"Rosamunde Sausage Grill","2832 MISSION St",94110,37.751587,-122.418444,"(37.751587, -122.418444)",14155307170,"61736_20180918","9/18/18",92,"61736_20180918_103118","Employee eating or smoking","Moderate Risk"
1081,"ARINELL PIZZA","509 VALENCIA St",94110,37.764744,-122.421803,"(37.764744, -122.421803)",14155251303,"1081_20160222","2/22/16",84,"1081_20160222_103120","Moderate risk food holding temperature","Moderate Risk"
1003,"RINCON PERUANO RESTAURANT","3364 26th St",94110,37.749128,-122.417402,"(37.749128, -122.417402)",14155897712,"1003_20160706","7/6/16",88,"1003_20160706_103124","Inadequately cleaned or sanitized food contact surfaces","Moderate Risk"
27377,"Sorabol","845 Market St FC-3",94103,37.784848,-122.406892,"(37.784848, -122.406892)",14155775959,"27377_20160420","4/20/16",74,"27377_20160420_103121","Inadequate procedures or records for time as a public health control","Moderate Risk"
65057,"The Brixton","2140 UNION St",94123,37.797238,-122.434533,"(37.797238, -122.434533)",14155401114,"65057_20171221","12/21/17",92,"65057_20171221_103133","Foods not protected from contamination","Moderate Risk"
71380,"Curry Up Now","659 Valencia St",94110,37.762265,-122.421586,"(37.762265, -122.421586)",14155827000,"71380_20160301","3/1/16",86,"71380_20160301_103131","Moderate risk vermin infestation","Moderate Risk"
3948,"Mel's Drive-In","833 MISSION St",94103,37.78355,-122.405356,"(37.78355, -122.405356)",14155220793,"3948_20161005","10/5/16",94,"3948_20161005_103124","Inadequately cleaned or sanitized food contact surfaces","Moderate Risk"
18800,"7-Mission Restaurant","150 07th St",94103,37.778547,-122.41013,"(37.778547, -122.41013)",14155863298,"18800_20160913","9/13/16",81,"18800_20160913_103132","Improper thawing methods","Moderate Risk"
2326,"IRMA'S PAMPANGA RESTAURANT","2901 16th St",94103,37.765123,-122.417919,"(37.765123, -122.417919)",14155626688,"2326_20151105","11/5/15",63,"2326_20151105_103119","Inadequate and inaccessible handwashing facilities","Moderate Risk"
5867,"MALCOLM X ELEMENTARY SCHOOL","350 Harbor Rd",94124,37.733741,-122.380619,"(37.733741, -122.380619)",14155695950,"5867_20170928","9/28/17",96,"5867_20170928_103120","Moderate risk food holding temperature","Moderate Risk"
2134,"CHIEFTAIN IRISH PUB, THE","198 05th St",94103,37.781567,-122.405059,"(37.781567, -122.405059)",14155610916,"2134_20160420","4/20/16",90,"2134_20160420_103124","Inadequately cleaned or sanitized food contact surfaces","Moderate Risk"
63503,"Mason Street Deli and Market","39 MASON",94102,37.784094,-122.409274,"(37.784094, -122.409274)",14155624312,"63503_20170929","9/29/17",88,"63503_20170929_103131","Moderate risk vermin infestation","Moderate Risk"
67552,"Namu Gaji","499 Dolores St",94110,37.761554,-122.425956,"(37.761554, -122.425956)",14155436268,"67552_20180510","5/10/18",89,"67552_20180510_103127","Noncompliance with HAACP plan or variance","Moderate Risk"
4824,"THE GAP CAFE","1 HARRISON St",94105,37.789177,-122.388962,"(37.789177, -122.388962)",14155292977,"4824_20160819","8/19/16",96,"4824_20160819_103124","Inadequately cleaned or sanitized food contact surfaces","Moderate Risk"
2315,"TAQUERIA CAN-CUN","2288 MISSION St",94110,37.760487,-122.419285,"(37.760487, -122.419285)",14155259560,"2315_20180917","9/17/18",81,"2315_20180917_103116","Inadequate food safety knowledge or lack of certified food safety manager","Moderate Risk"
63503,"Mason Street Deli and Market","39 MASON",94102,37.784094,-122.409274,"(37.784094, -122.409274)",14155624312,"63503_20170929","9/29/17",88,"63503_20170929_103119","Inadequate and inaccessible handwashing facilities","Moderate Risk"
1296,"TAQUERIA EL BUEN SABOR","699 VALENCIA St",94112,37.761743,-122.421492,"(37.761743, -122.421492)",14155588745,"1296_20160209","2/9/16",80,"1296_20160209_103124","Inadequately cleaned or sanitized food contact surfaces","Moderate Risk"
2134,"CHIEFTAIN IRISH PUB, THE","198 05th St",94103,37.781567,-122.405059,"(37.781567, -122.405059)",14155610916,"2134_20160420","4/20/16",90,"2134_20160420_103120","Moderate risk food holding temperature","Moderate Risk"
5913,"ST CHARLES SCHOOL","3250 18th St",94110,37.762074,-122.416107,"(37.762074, -122.416107)",14155867652,"5913_20160407","4/7/16",96,"5913_20160407_103129","Insufficient hot water or running water","Moderate Risk"
63646,"SFDH - Harry Denton's Starlight Room","450 Powell St 21st Floor",94108,37.788782,-122.408439,"(37.788782, -122.408439)",14155397755,"63646_20160502","5/2/16",96,"63646_20160502_103124","Inadequately cleaned or sanitized food contact surfaces","Moderate Risk"
2447,"NEW CASTILLITO INC.","2092 MISSION St",94110,37.76356,-122.419582,"(37.76356, -122.419582)",14155626971,"2447_20160822","8/22/16",92,"2447_20160822_103133","Foods not protected from contamination","Moderate Risk"
5959,"ST. JOHN'S SNACK BAR","925 CHENERY St",94131,37.735264,-122.437679,"(37.735264, -122.437679)",14155586144,"5959_20171002","10/2/17",94,"5959_20171002_103120","Moderate risk food holding temperature","Moderate Risk"
2447,"NEW CASTILLITO INC.","2092 MISSION St",94110,37.76356,-122.419582,"(37.76356, -122.419582)",14155626971,"2447_20160822","8/22/16",92,"2447_20160822_103116","Inadequate food safety knowledge or lack of certified food safety manager","Moderate Risk"
5212,"MARTIN DE PORRES HOUSE OF HOSP","225 Potrero Ave",94103,37.766759,-122.407571,"(37.766759, -122.407571)",14155550240,"5212_20180522","5/22/18",85,"5212_20180522_103124","Inadequately cleaned or sanitized food contact surfaces","Moderate Risk"
71286,"21 Taste House","1109 Ocean Ave",94112,37.723461,-122.454226,"(37.723461, -122.454226)",14155932233,"71286_20180302","3/2/18",90,"71286_20180302_103132","Improper thawing methods","Moderate Risk"
591,"YOU SEE SUSHI","94 JUDAH St",94122,37.762378,-122.462692,"(37.762378, -122.462692)",14155684010,"591_20160615","6/15/16",83,"591_20160615_103132","Improper thawing methods","Moderate Risk"
2031,"KENMORE RESIDENCE CLUB","1570 SUTTER St",94109,37.787017,-122.426234,"(37.787017, -122.426234)",14155775815,"2031_20160318","3/18/16",88,"2031_20160318_103131","Moderate risk vermin infestation","Moderate Risk"
4716,"MICHAELIS WINE & SPIRITS","2198 UNION St",94123,37.797138,-122.435334,"(37.797138, -122.435334)",14155925700,"4716_20180307","3/7/18",87,"4716_20180307_103124","Inadequately cleaned or sanitized food contact surfaces","Moderate Risk"
4774,"BAYSIDE MARKET","120 BRANNAN St",94107,37.78416,-122.389239,"(37.78416, -122.389239)",14155220151,"4774_20160823","8/23/16",84,"4774_20160823_103127","Noncompliance with HAACP plan or variance","Moderate Risk"
4620,"WELCOME SUPER MARKET","1141 FOLSOM St",94103,37.776057,-122.408682,"(37.776057, -122.408682)",14155437007,"4620_20160822","8/22/16",90,"4620_20160822_103131","Moderate risk vermin infestation","Moderate Risk"
27377,"Sorabol","845 Market St FC-3",94103,37.784848,-122.406892,"(37.784848, -122.406892)",14155775959,"27377_20160420","4/20/16",74,"27377_20160420_103133","Foods not protected from contamination","Moderate Risk"
64379,"Piccadilly Fish & Chips","1348 Polk St",94109,37.789299,-122.420352,"(37.789299, -122.420352)",14155776477,"64379_20161024","10/24/16",90,"64379_20161024_103132","Improper thawing methods","Moderate Risk"
13374,"Rooftop Middle School","500 Corbett St.",94114,37.757398,-122.4442,"(37.757398, -122.4442)",14155526757,"13374_20160422","4/22/16",83,"13374_20160422_103124","Inadequately cleaned or sanitized food contact surfaces","Moderate Risk"
3309,"ALBORZ","1245 VAN NESS Ave",94109,37.787375,-122.421844,"(37.787375, -122.421844)",14155444321,"3309_20160115","1/15/16",86,"3309_20160115_103119","Inadequate and inaccessible handwashing facilities","Moderate Risk"
13374,"Rooftop Middle School","500 Corbett St.",94114,37.757398,-122.4442,"(37.757398, -122.4442)",14155526757,"13374_20160422","4/22/16",83,"13374_20160422_103119","Inadequate and inaccessible handwashing facilities","Moderate Risk"
27799,"Buckhorn Grill","845 Market St FE-5",94103,37.784848,-122.406892,"(37.784848, -122.406892)",14155979770,"27799_20160711","7/11/16",87,"27799_20160711_103131","Moderate risk vermin infestation","Moderate Risk"
3309,"ALBORZ","1245 VAN NESS Ave",94109,37.787375,-122.421844,"(37.787375, -122.421844)",14155444321,"3309_20160115","1/15/16",86,"3309_20160115_103131","Moderate risk vermin infestation","Moderate Risk"
5815,"ALVARADO ELEMENTARY SCHOOL","625  DOUGLASS St",94114,37.753684,-122.438696,"(37.753684, -122.438696)",14155695695,"5815_20151021","10/21/15",94,"5815_20151021_103133","Foods not protected from contamination","Moderate Risk"
37090,"Basil Canteen","1489 FOLSOM St",94103,37.772008,-122.413803,"(37.772008, -122.413803)",14155553963,"37090_20180521","5/21/18",86,"37090_20180521_103120","Moderate risk food holding temperature","Moderate Risk"
39862,"Trader Joe's #236","265 Winston Dr",94132,37.726891,-122.475673,"(37.726891, -122.475673)",14155661835,"39862_20160707","7/7/16",90,"39862_20160707_103120","Moderate risk food holding temperature","Moderate Risk"
522,"Boudin Sourdough Bakery","3251 20th Ave",94132,37.728497,-122.475639,"(37.728497, -122.475639)",14155561849,"522_20160706","7/6/16",94,"522_20160706_103124","Inadequately cleaned or sanitized food contact surfaces","Moderate Risk"
4492,"Mollie Stone's Grand Central Market (Mezzanine Level)","2435 CALIFORNIA St",94115,37.788773,-122.434697,"(37.788773, -122.434697)",14155564902,"4492_20160627","6/27/16",90,"4492_20160627_103131","Moderate risk vermin infestation","Moderate Risk"
7747,"SAFEWAY STORE #964","4950 Mission St",94112,37.71954,-122.438775,"(37.71954, -122.438775)",14155587200,"7747_20161210","12/10/16",88,"7747_20161210_103124","Inadequately cleaned or sanitized food contact surfaces","Moderate Risk"
2599,"HONG KONG RESTAURANT","2728 SAN BRUNO Ave",94134,37.727159,-122.403452,"(37.727159, -122.403452)",14155461818,"2599_20160614","6/14/16",74,"2599_20160614_103131","Moderate risk vermin infestation","Moderate Risk"
4874,"JUMP START COFFEE & GROCERY","1192 GUERRERO St",94110,37.752118,-122.422914,"(37.752118, -122.422914)",14155647555,"4874_20180306","3/6/18",86,"4874_20180306_103119","Inadequate and inaccessible handwashing facilities","Moderate Risk"
18102,"Kim Son Restaurant","3614 BALBOA St",94121,37.775728,-122.497701,"(37.775728, -122.497701)",14155815413,"18102_20151116","11/16/15",90,"18102_20151116_103120","Moderate risk food holding temperature","Moderate Risk"
320,"NAPOLI PIZZA RESTAURANT","1045 POLK St",94109,37.786545,-122.419894,"(37.786545, -122.419894)",14155882222,"320_20180522","5/22/18",81,"320_20180522_103132","Improper thawing methods","Moderate Risk"
4774,"BAYSIDE MARKET","120 BRANNAN St",94107,37.78416,-122.389239,"(37.78416, -122.389239)",14155220151,"4774_20160823","8/23/16",84,"4774_20160823_103131","Moderate risk vermin infestation","Moderate Risk"
3982,"SLIM'S","333 11th St",94103,37.771501,-122.413439,"(37.771501, -122.413439)",14155250333,"3982_20160824","8/24/16",92,"3982_20160824_103124","Inadequately cleaned or sanitized food contact surfaces","Moderate Risk"
2017,"THE GROVE FILLMORE","2016 FILLMORE St",94115,37.788147,-122.433637,"(37.788147, -122.433637)",14155471419,"2017_20161024","10/24/16",92,"2017_20161024_103120","Moderate risk food holding temperature","Moderate Risk"
2725,"BOBOQUIVARI'S","1450 LOMBARD St",94123,37.801218,-122.425535,"(37.801218, -122.425535)",14155448880,"2725_20160511","5/11/16",90,"2725_20160511_103119","Inadequate and inaccessible handwashing facilities","Moderate Risk"
3611,"ABSINTHE BRASSERIE & BAR","398 HAYES St",94102,37.77694,-122.422962,"(37.77694, -122.422962)",14155551590,"3611_20160628","6/28/16",90,"3611_20160628_103133","Foods not protected from contamination","Moderate Risk"
62064,"California Grocery","123 Eddy St",94102,37.784303,-122.409647,"(37.784303, -122.409647)",14155448608,"62064_20160819","8/19/16",86,"62064_20160819_103129","Insufficient hot water or running water","Moderate Risk"
5212,"MARTIN DE PORRES HOUSE OF HOSP","225 Potrero Ave",94103,37.766759,-122.407571,"(37.766759, -122.407571)",14155550240,"5212_20180522","5/22/18",85,"5212_20180522_103120","Moderate risk food holding temperature","Moderate Risk"
619,"A-1 BAKERY","1727 OCEAN Ave",94112,37.724824,-122.460726,"(37.724824, -122.460726)",14155586923,"619_20160525","5/25/16",88,"619_20160525_103120","Moderate risk food holding temperature","Moderate Risk"
2326,"IRMA'S PAMPANGA RESTAURANT","2901 16th St",94103,37.765123,-122.417919,"(37.765123, -122.417919)",14155626688,"2326_20151105","11/5/15",63,"2326_20151105_103116","Inadequate food safety knowledge or lack of certified food safety manager","Moderate Risk"
4978,"Angel's Market","1649 Castro St",94114,37.748214,-122.433746,"(37.748214, -122.433746)",14155648309,"4978_20180522","5/22/18",96,"4978_20180522_103123","Food in poor condition","Moderate Risk"
